SENSORS,2.86,2.84,2.82,3.97,1.68,1.76,1.80,3.96,256
SENSORS,2.85,2.84,2.82,3.97,1.68,1.76,1.80,3.96,525
SENSORS,2.85,2.84,2.82,3.98,1.68,1.76,1.80,3.96,786
$GPGGA,235942.800,,,,,0,00,,,M,,M,,*7B
$GPGSA,A,1,,,,,,,,,,,,,
SENSORS,2.76,2.84,2.82,3.97,1.68,1.76,1.80,3.96,1253
SENSORS,2.86,2.84,2.82,3.97,1.68,1.76,1.80,3.96,1520
SENSORS,2.86,2.84,2.82,3.97,1.68,1.76,1.80,3.96,1783
SENSORS,2.86,2.84,2.82,3.97,1.68,1.76,1.80,3.96,2045
$GPGGA,235943.800,,,,,0,00,,,M,,M,,*7A
$GPGSA,A,1,,,,,,,,,,,,,
$GPRMC,235944.7
SENSORS,2.86,2.84,2.82,3.98,1.68,1.76,1.80,3.96,2577
SENSORS,2.84,2.84,2.81,3.98,1.68,1.76,1.80,3.96,2840
SENSORS,2.85,2.84,2.81,3.97,1.68,1.76,1.80,3.96,3102
SENSORS,2.85,2.84,2.81,3.97,1.68,1.76,1.80,3.96,3426
99,V,,,,,0.00,0.00,050180,,r¢Hà’KÀ0X±5±rÇ‰ä	&Kñï2
$GPGGA,23
$GPRMC,235944.7
SENSORS,2.85,2.84,2.81,3.98,1.68,1.76,1.80,3.96,3931
SENSORS,2.84,2.84,2.81,3.98,1.68,1.76,1.80,3.96,4194
SENSORS,2.84,2.84,2.81,3.97,1.68,1.76,1.80,3.96,4514
SENSORS,2.85,2.84,2.81,3.97,1.68,1.76,1.80,3.96,4776
$GPGGA,235946.799,,,,,0,00,,,M,,M,,*70
$GPGSA,A,1,,,,,,,,,,,,,
$GPRMC,235944.7
SENSORS,2.85,2.84,2.81,3.97,1.68,1.76,1.80,3.96,5296
SENSORS,2.84,2.84,2.81,3.97,1.68,1.76,1.80,3.96,5561
SENSORS,2.83,2.84,2.81,3.97,1.68,1.76,1.80,3.96,5823
SENSORS,2.85,2.84,2.81,3.97,1.68,1.76,1.80,3.96,6085
È‘T%¶¶S”ìSNññ		âäπäâ“S!!™™)tLññ,,X±,,,,,*1E
$GPRMC,235947.79
$GPRMC,235944.7
SENSORS,2.85,2.84,2.81,3.97,1.68,1.76,1.80,3.96,6588
SENSORS,2.85,2.84,2.81,3.97,1.68,1.76,1.80,3.96,6850
SENSORS,2.84,2.84,2.81,3.97,1.68,1.76,1.80,3.96,7112
SENSORS,2.83,2.84,2.81,3.97,1.68,1.76,1.80,3.96,7407
$GPGGA,235949.799,,,,,0,00,,,M,,M,,*7F
$GPGSA,A,1,,,,,,,,,,,,,
$GPRMC,235944.7
SENSORS,2.84,2.84,2.81,3.98,1.68,1.76,1.80,3.96,7908
SENSORS,2.83,2.84,2.81,3.97,1.68,1.76,1.80,3.96,8170
SENSORS,2.83,2.84,2.81,3.97,1.68,1.76,1.80,3.96,8436
SENSORS,2.84,2.84,2.81,3.97,1.68,1.75,1.80,3.96,8699
$GPGGA,235950.800,,,,,0,00,,,M,,M,,*78
$GPGSA,A,1,,,,,,,,,,,,,
$GPRMC,235944.7
SENSORS,2.83,2.84,2.81,3.97,1.68,1.76,1.80,3.96,9200
SENSORS,2.84,2.84,2.81,3.97,1.68,1.76,1.80,3.96,9487
SENSORS,2.84,2.84,2.81,3.97,1.68,1.76,1.80,3.96,9750
SENSORS,2.83,2.84,2.81,3.97,1.67,1.76,1.80,3.96,10012
$GPGGA,235951.800,,,,,0,00,,,M,,M,,*79
$GPGSA,A,1,,,,,,,,,,,,,0,T,,M,0.00,N,0.0
SENSORS,2.84,2.84,2.81,3.97,1.67,1.76,1.80,3.96,10535
SENSORS,2.84,2.84,2.81,3.97,1.67,1.76,1.79,3.96,10799
SENSORS,2.83,2.84,2.81,3.97,1.67,1.76,1.80,3.96,11063
SENSORS,2.84,2.84,2.81,3.97,1.67,1.76,1.79,3.96,11365
0,K,N*32
$GPGGA,235953.800,,,,,0,00,,,M,,M,,*7B
$GPGSA,A,1,,,0,T,,M,0.00,N,0.0
SENSORS,2.82,2.84,2.81,3.97,1.66,1.76,1.79,3.96,11870
SENSORS,2.82,2.84,2.81,3.97,1.68,1.76,1.80,3.96,12133
SENSORS,2.84,2.84,2.81,3.97,1.68,1.76,1.80,3.96,12400
SENSORS,2.82,2.84,2.81,3.97,1.68,1.76,1.80,3.96,12670
$GPGGA,235954.800,,,,,0,00,,,M,,M,,*7C
$GPGSA,A,1,,,,,,,,,,,,,0,T,,M,0.00,N,0.0
SENSORS,2.83,2.84,2.81,3.97,1.68,1.76,1.79,3.96,13174
SENSORS,2.84,2.84,2.81,3.97,1.67,1.76,1.80,3.96,13472
SENSORS,2.84,2.84,2.81,3.98,1.67,1.76,1.79,3.96,13744
SENSORS,2.83,2.84,2.81,3.97,1.66,1.75,1.80,3.96,14007
$Gé±ö ™≤rÇÇ.ââ&bbjƒπIìTHà‘tLââââââââ9I¶!!T´ô)é	¬bí™bbbö bÇ0,T,,M,0.00,N,0.0
SENSORS,2.82,2.84,2.81,3.97,1.67,1.76,1.79,3.96,14562
SENSORS,2.83,2.84,2.81,3.97,1.67,1.74,1.80,3.96,14826
SENSORS,2.83,2.84,2.81,3.97,1.69,1.73,1.79,3.96,15089
SENSORS,2.83,2.84,2.81,3.97,1.64,1.73,1.80,3.96,15353
$Pé±¢™¬)%KLòñ,,X◊ƒIÈT!™™K–≈±bbƒâââKL
$AIä.&&M•ñ,,\Ç	S¶'%,0,T,,M,0.00,N,0.0
SENSORS,2.82,2.84,2.81,3.97,1.67,1.76,1.79,3.96,15858
SENSORS,2.84,2.84,2.81,3.97,1.65,1.75,1.79,3.96,16121
SENSORS,2.82,2.84,2.81,3.97,1.64,1.73,1.79,3.96,16412
SENSORS,2.83,2.84,2.81,3.97,1.64,1.71,1.79,3.96,16683
$`≈ä¢™ä¢Ç)ââ	bbƒ≈πäâIÈ©H“‘(–,1,,,,,,X±bbéRT!“%’
±145140.180,T,,M,0.00,N,0.0
SENSORS,2.83,2.84,2.81,3.98,1.64,1.74,1.79,3.96,17187
SENSORS,2.82,2.84,2.81,3.97,1.65,1.77,1.79,3.96,17512
SENSORS,2.83,2.84,2.81,3.97,1.65,1.77,1.79,3.96,17775
SENSORS,2.84,2.84,2.81,3.98,1.67,1.77,1.79,3.96,18039
$GPGGA,145141.184,,,,,0,00,,,M,,≈bÈ©H“™™K–∆,,,,,X±abbƒé•®Hà%j),35,32,,,39*72
$G
SENSORS,2.82,2.85,2.81,3.97,1.68,1.76,1.71,3.96,18667
SENSORS,2.83,2.85,2.81,3.97,1.69,1.75,1.79,3.96,18930
SENSORS,2.83,2.85,2.81,3.97,1.68,1.76,1.80,3.96,19194
SENSORS,2.83,2.85,2.81,3.97,1.68,1.76,1.79,3.96,19497
PGSV,3,2,09,22,,,32,31,,,31,1X±·bÇ¬âIì•¶!T’3,3`±°bb4˘7ëAIä™ìß,35,32,,,39*72
$G
SENSORS,2.83,2.85,2.81,3.97,1.68,1.76,1.80,3.96,20008
SENSORS,2.83,2.85,2.81,3.97,1.68,1.76,1.80,3.96,20273
SENSORS,2.83,2.85,2.81,3.97,1.68,1.76,1.80,3.96,20557
SENSORS,2.83,2.85,2.81,3.97,1.68,1.76,1.79,3.96,20820
$GPGGA,145144.314,,,,,0,00,,,M,,M,,*7F
$GPGSA,A,1,,,,,,,,,,,,,,35,32,,,39*72
$G
SENSORS,2.83,2.85,2.81,3.97,1.68,1.76,1.79,3.96,21327
SENSORS,2.83,2.85,2.81,3.97,1.68,1.76,1.79,3.96,21591
SENSORS,2.82,2.85,2.81,3.97,1.68,1.76,1.80,3.96,21855
SENSORS,2.83,2.85,2.81,3.97,1.68,1.76,1.79,3.96,22118
$GPGGA,145145.314,,,,,0,00,,,M,,M,,*7E
$GPGSA,A,1,,,,,,,,,,,,,09,25,,,29,01,,,$G
SENSORS,2.82,2.85,2.81,3.98,1.68,1.76,1.79,3.96,22684
SENSORS,2.82,2.85,2.81,3.97,1.68,1.76,1.79,3.95,22948
SENSORS,2.82,2.85,2.80,3.97,1.68,1.76,1.79,3.96,23212
SENSORS,2.82,2.85,2.81,3.97,1.68,1.76,1.80,3.96,23499
29,14,,,37,32,,,34*73
$GPGSVfíb$ƒâi¶ñ,39≈±bí™	9%&JNÖ$GéMYii	09,25,,,29,01,,,$G
SENSORS,2.82,2.85,2.80,3.97,1.68,1.76,1.79,3.96,24006
SENSORS,2.82,2.85,2.80,3.97,1.68,1.76,1.79,3.96,24294
SENSORS,2.82,2.85,2.80,3.97,1.68,1.76,1.79,3.96,24558
SENSORS,2.82,2.85,2.80,3.97,1.68,1.76,1.79,3.96,24821
$GPGGA,145148.103,,,,,0,00,,,M,,M,,*77
$GPGSA,A,1,,,,,,,,,,,,,,,,,,,,,,,,,,,*1$G
SENSORS,2.82,2.85,2.80,3.97,1.68,1.76,1.79,3.96,25364
SENSORS,2.83,2.85,2.80,3.97,1.68,1.76,1.79,3.96,25628
SENSORS,2.82,2.85,2.80,3.97,1.68,1.76,1.80,3.96,25891
SENSORS,2.83,2.85,2.80,3.97,1.68,1.76,1.79,3.96,26210
E
$GPRMC,145149.103,V,,,,,0.ÇbrÇÑ9%PCí®VTXπÇD≈©ä&&KK.0X±©íj¸$,,,,,,,,,,,,,,*1$G
SENSORS,2.83,2.85,2.80,3.97,1.68,1.76,1.79,3.96,26718
SENSORS,2.82,2.85,2.80,3.97,1.68,1.76,1.79,3.96,26982
SENSORS,2.82,2.85,2.80,3.97,1.68,1.76,1.79,3.96,27297
SENSORS,2.83,2.85,2.80,3.97,1.68,1.76,1.79,3.96,27564
$GPGGA,145151.103,,,,,0,00,,,M,,M,,*7F
$GPGSA,A,1,,,,,,,,,,,,,,,,,,,,,,,,,,,*1$G
SENSORS,2.83,2.85,2.80,3.97,1.68,1.76,1.79,3.96,28121
SENSORS,2.83,2.85,2.80,3.97,1.68,1.76,1.79,3.96,28386
SENSORS,2.83,2.85,2.80,3.97,1.68,1.76,1.79,3.95,28649
SENSORS,2.82,2.85,2.80,3.97,1.68,1.76,1.79,3.96,28913
“™PLML2.1õbâââ&&Kññ,M,,*7ëAM≈)bbƒââââââ9IST!™().ì)”&…≈ƒââìL,,,,,,,,,,,,,,*1$G
SENSORS,2.81,2.85,2.80,3.97,1.68,1.76,1.79,3.95,29420
SENSORS,2.83,2.85,2.80,3.97,1.68,1.76,1.79,3.95,29684
SENSORS,2.83,2.85,2.80,3.97,1.68,1.76,1.79,3.96,29947
SENSORS,2.82,2.85,2.80,3.97,1.68,1.76,1.79,3.96,30225
$GPGGA,145154.092,,,,,0,00,,,M,,M,,*73
$GPGSA,A,1,,,,,,,,,,,,,,,,,,,,,,,,,,,*1$G
SENSORS,2.83,2.85,2.80,3.97,1.68,1.76,1.79,3.96,30738
SENSORS,2.82,2.85,2.80,3.97,1.68,1.76,1.79,3.96,31001
SENSORS,2.82,2.85,2.80,3.97,1.68,1.76,1.79,3.96,31322
SENSORS,2.82,2.85,2.80,3.97,1.68,1.76,1.79,3.96,31588
$GPGGA,145155.311,,±¡bÇbâ©âSñ7A
$GPG±«bâââââââââ9JLQ
$GMY±3¬,,,,,,,,,,,,,,*1$G
SENSORS,2.83,2.85,2.80,3.97,1.68,1.76,1.79,3.96,32095
SENSORS,2.83,2.85,2.80,3.97,1.68,1.76,1.79,3.96,32363
SENSORS,2.83,2.85,2.80,3.97,1.68,1.76,1.79,3.96,32627
SENSORS,2.83,2.85,2.80,3.97,1.68,1.76,1.79,3.96,32890
$GPGGA,145156.311,,,,,0,00,,,M,,M,,*79
$GPGSA,A,1,,,,,,,,,,,,,,,,,,,,*1E
$GPR$G
SENSORS,2.82,2.85,2.80,3.97,1.68,1.76,1.79,3.96,33430
SENSORS,2.83,2.85,2.80,3.97,1.68,1.76,1.79,3.96,33693
SENSORS,2.82,2.85,2.80,3.97,1.68,1.76,1.79,3.96,33957
SENSORS,2.82,2.85,2.80,3.97,1.68,1.76,1.79,3.96,34284
MC,145157.311,V,,,,,0.00,0.00b¡·Çb!!T™ñ0.Çb≈©ä	sLññ*32)$GPG,,,,,,,*1E
$GPR$G
SENSORS,2.83,2.85,2.80,3.97,1.68,1.76,1.79,3.96,34790
SENSORS,2.82,2.85,2.80,3.97,1.68,1.76,1.79,3.96,35054
SENSORS,2.82,2.85,2.80,3.97,1.68,1.76,1.79,3.96,35325
SENSORS,2.83,2.85,2.80,3.97,1.68,1.76,1.79,3.96,35589
$GPGGA,145159.311,,,,,0,00,,,M,,M,,*76
$GPGSA,A,1,,,,,,,,,,,,,,,,,,,,*1E
$GPR$G
SENSORS,2.83,2.85,2.80,3.97,1.68,1.76,1.79,3.96,36096
SENSORS,2.82,2.85,2.80,3.97,1.68,1.76,1.79,3.95,36415
SENSORS,2.82,2.85,2.80,3.97,1.68,1.76,1.79,3.95,36682
SENSORS,2.84,2.85,2.80,3.97,1.68,1.76,1.79,3.95,36974
$GPGGA,145200.086,,,,,0,03,,,M,,M,,*77
$GPGSA,A,1,,,,,,,,,,,,,,,,,,,,*1E
$GPR$G
SENSORS,2.84,2.85,2.80,3.97,1.68,1.76,1.79,3.95,37481
SENSORS,2.90,2.85,2.80,3.97,1.68,1.76,1.79,3.95,37744
SENSORS,2.82,2.85,2.80,3.97,1.68,1.76,1.79,3.96,38008
SENSORS,2.83,2.85,2.80,3.97,1.68,1.76,1.79,3.96,38272
SENSORS,2.84,2.85,2.80,3.97,1.68,1.76,1.79,3.95,38670
SENSORS,2.83,2.85,2.80,3.97,1.68,1.76,1.79,3.95,38934
SENSORS,2.84,2.85,2.80,3.97,1.68,1.76,1.79,3.95,39197
SENSORS,2.84,2.85,2.80,3.97,1.68,1.76,1.79,3.95,39461
$GPGGA,145203.000,,,,,0,03,,,M,,M,,*7A
$GPGSA,A,1,,,,,,,,,,,,,,2,14,32,31,,,,,,,,
SENSORS,2.83,2.85,2.80,3.97,1.68,1.76,1.79,3.95,40009
SENSORS,2.85,2.85,2.80,3.97,1.68,1.76,1.79,3.95,40273
SENSORS,2.84,2.85,2.80,3.97,1.68,1.76,1.79,3.95,40537
SENSORS,2.85,2.85,2.80,3.97,1.68,1.76,1.79,3.95,40861
,,5.00,4.90,1.00*0C
$GPRMC,14d—¡ÇÇâIì&¶KKúò.97»]±rä4i	Sî”!!,2,14,32,31,,,,,,,,
SENSORS,2.84,2.85,2.80,3.97,1.68,1.76,1.79,3.95,41372
SENSORS,2.83,2.85,2.80,3.97,1.68,1.76,1.79,3.95,41636
SENSORS,2.85,2.85,2.80,3.97,1.68,1.76,1.79,3.95,41952
SENSORS,2.84,2.85,2.80,3.97,1.68,1.76,1.79,3.95,42268
$GPGGA,145206.000,4127.1849,N,08417.9746,W,1,03,4.90,183.7,M,-3,2,14,32,31,,,,,,,,
SENSORS,2.79,2.85,2.80,3.97,1.68,1.76,1.79,3.95,42780
SENSORS,2.84,2.85,2.80,3.97,1.67,1.76,1.79,3.95,43043
SENSORS,2.84,2.85,2.80,3.97,1.68,1.76,1.79,3.95,43308
SENSORS,2.85,2.85,2.80,3.97,1.68,1.76,1.79,3.95,43571
$GPGGA,145208.000,4127.1852,N,08417.9749,W,1,03,4.90,183.7,M,-3,2,14,32,31,,,,,,,,
SENSORS,2.84,2.85,2.80,3.97,1.68,1.76,1.79,3.95,44080
SENSORS,2.83,2.85,2.80,3.97,1.68,1.76,1.79,3.95,44344
SENSORS,2.84,2.85,2.80,3.97,1.68,1.76,1.79,3.95,44607
SENSORS,2.85,2.85,2.80,3.97,1.68,1.75,1.79,3.95,44891
$GPGGA,145209.000,4127.1855,N,08417.9749,W,1,03,4.90,183.7,M,-3,2,14,32,31,,,,,,,,
SENSORS,2.85,2.85,2.80,3.97,1.68,1.76,1.79,3.95,45399
SENSORS,2.84,2.85,2.80,3.97,1.68,1.76,1.79,3.95,45721
SENSORS,2.84,2.85,2.80,3.97,1.68,1.75,1.80,3.95,45990
SENSORS,2.84,2.85,2.80,3.97,1.68,1.76,1.79,3.95,46255
$GPGGA,1’≈πÇÇÇâI∫rä¬™ƒä	SìßSÈ)	âr Çbärbj©iìÈbjƒI©S“™™
$¢iâi,2,14,32,31,,,,,,,,
SENSORS,2.84,2.85,2.80,3.97,1.68,1.76,1.79,3.95,46863
SENSORS,2.85,2.85,2.80,3.97,1.68,1.76,1.79,3.95,47129
SENSORS,2.84,2.85,2.80,3.97,1.68,1.76,1.79,3.95,47393
SENSORS,2.84,2.85,2.80,3.97,1.68,1.76,1.79,3.95,47713
$GPGGA,145211.000,4127.18f9±¬¢r¢t≈”ìßKLóñ,-3π±±R™§ÈÍU&&KLLñ,,,2,14,32,31,,,,,,,,
SENSORS,2.85,2.85,2.80,3.97,1.68,1.76,1.79,3.95,48227
SENSORS,2.83,2.85,2.80,3.97,1.68,1.76,1.79,3.95,48490
SENSORS,2.85,2.85,2.80,3.97,1.68,1.76,1.79,3.95,48754
SENSORS,2.84,2.85,2.80,3.97,1.68,1.76,1.79,3.95,49017
SENSORS,2.85,2.85,2.80,3.97,1.68,1.76,1.79,3.95,49417
SENSORS,2.85,2.85,2.80,3.97,1.68,1.76,1.79,3.95,49728
SENSORS,2.84,2.85,2.80,3.97,1.68,1.76,1.79,3.95,49992
SENSORS,2.83,2.85,2.80,3.98,1.68,1.76,1.79,3.95,50255
$GPGGA,145214.000,4127.1833,N,08417.9735,W,1,03,4.91,183.7,M,-300*0C
$GPRMC,145215
SENSORS,2.84,2.85,2.80,3.97,1.68,1.76,1.79,3.95,50806
SENSORS,2.84,2.85,2.80,3.97,1.68,1.76,1.79,3.95,51069
SENSORS,2.84,2.85,2.80,3.97,1.68,1.76,1.79,3.95,51334
SENSORS,2.85,2.85,2.80,3.98,1.68,1.76,1.79,3.95,51655
.000,A,4127.1835,N,08417.9735,XπÕbör4äƒâ)“SCI®™G,fπ’b¢ƒ©äì¶&KMú00*0C
$GPRMC,145215
SENSORS,2.84,2.85,2.80,3.97,1.67,1.76,1.79,3.95,52172
SENSORS,2.85,2.85,2.80,3.97,1.68,1.76,1.79,3.95,52439
SENSORS,2.85,2.85,2.80,3.97,1.68,1.76,1.79,3.95,52714
SENSORS,2.84,2.85,2.80,3.97,1.67,1.76,1.79,3.95,52977
A:±1’≈rÇÇâIì)¬¢öbr±08417.9741,W,1,03,4.91,183.6,M,-33.7,M,,*500*0C
$GPRMC,145215
SENSORS,2.83,2.85,2.80,3.97,1.68,1.76,1.79,3.95,53541
SENSORS,2.84,2.85,2.80,3.97,1.67,1.75,1.79,3.95,53865
SENSORS,2.84,2.85,2.80,3.97,1.68,1.75,1.79,3.95,54130
SENSORS,2.84,2.85,2.80,3.97,1.67,1.74,1.79,3.95,54394
éA‚ä™ä¬rÇÇÇâI…)S%ä	är¢Çb∫äböÑîbä¬ör∫©äiìäâI©©H“‘(PI4bäbbb00*0C
$GPRMC,145215
SENSORS,2.84,2.85,2.80,3.97,1.67,1.75,1.79,3.95,54904
SENSORS,2.83,2.85,2.80,3.97,1.67,1.75,1.79,3.95,55169
SENSORS,2.84,2.85,2.80,3.97,1.69,1.76,1.79,3.95,55467
SENSORS,2.85,2.85,2.80,3.97,1.68,1.75,1.79,3.95,55739
éPä¢™ííÇrÇbärä¬™äbä	)…)SSÈ)	âSbä¬t‘ä©i©äâI©T!™™ññ2,14,32,00*0C
$GPRMC,145215
SENSORS,2.83,2.85,2.80,3.97,1.68,1.74,1.79,3.95,56249
SENSORS,2.84,2.85,2.80,3.97,1.67,1.74,1.79,3.95,56571
SENSORS,2.84,2.85,2.80,3.97,1.69,1.81,1.80,3.95,56841
SENSORS,2.83,2.85,2.80,3.97,1.67,1.74,1.79,3.95,57105
$GPGGA,145221.000,4127.1839,N,08417.9752,W,1,03,4.91,183.7,M,Õπ3.7,M,,*5A
$GPGSA,5
SENSORS,2.85,2.85,2.80,3.97,1.67,1.76,1.79,3.95,57666
SENSORS,2.84,2.85,2.80,3.97,1.67,1.75,1.79,3.95,57930
SENSORS,2.84,2.85,2.80,3.97,1.67,1.76,1.79,3.95,58193
SENSORS,2.84,2.85,2.80,3.97,1.67,1.74,1.82,3.95,58517
A,2,14,32,31,,,,,,,,,,5.01,4.91b¡©Ç§à
U(&&&ôò0,A—…rä¬‰ä	SßMKñ3.7,M,,*5A
$GPGSA,5
SENSORS,2.84,2.85,2.80,3.97,1.67,1.75,1.79,3.95,59036
SENSORS,2.84,2.85,2.80,3.97,1.67,1.75,1.79,3.95,59299
SENSORS,2.84,2.85,2.80,3.97,1.67,1.75,1.79,3.95,59620
SENSORS,2.84,2.85,2.80,3.97,1.68,1.74,1.78,3.95,59889
$GPGGA,145224.000,4127.1832,N,08417.9750,W,1,03,4.91,183.7,M,-33.7,M,,*5A
$GPGSA,5
SENSORS,2.85,2.85,2.80,3.97,1.67,1.76,1.79,3.95,60400
SENSORS,2.84,2.85,2.80,3.98,1.67,1.76,1.79,3.95,60663
SENSORS,2.85,2.85,2.80,3.97,1.60,1.67,1.82,3.95,60926
SENSORS,2.85,5.06,2.80,3.97,1.69,1.74,1.79,3.95,61191
$GPGGA,145226.000,4127.1878,N,08417.9653,W,1,06,1.94,228.3,M,-310,31,156,29,01,22,5
SENSORS,2.84,5.06,2.80,3.97,1.67,1.76,1.79,3.95,61753
SENSORS,2.85,5.06,2.80,3.97,1.67,1.76,1.79,3.95,62016
SENSORS,2.85,5.06,2.80,3.97,1.67,1.76,1.79,3.95,62327
SENSORS,2.85,5.06,2.80,3.97,1.67,1.76,1.79,3.95,62595
283,31,12,13,036,42*79
$GPGSV,X±…bíƒi	ââSLKñö,2X±’∫öjà
U&&&M10,31,156,29,01,22,5
SENSORS,2.82,5.06,2.80,3.97,1.67,1.76,1.79,3.95,63106
SENSORS,2.85,5.06,2.80,3.97,1.67,1.76,1.79,3.95,63430
SENSORS,2.86,5.06,2.80,3.97,1.67,1.76,1.79,3.95,63693
SENSORS,2.84,5.06,2.80,3.97,1.67,1.76,1.79,3.95,63958
$GPGGA,145228.000,4127.1883,N,08417.9658,W,1,06,1.94,228.2,M,-3,,,,,2.15,1.94,0.92*
SENSORS,2.86,5.06,2.80,3.97,1.67,1.76,1.79,3.95,64513
SENSORS,2.86,5.06,2.80,3.97,1.67,1.76,1.79,3.95,64777
SENSORS,2.85,5.06,2.80,3.97,1.67,1.76,1.79,3.95,65040
SENSORS,2.86,5.06,2.80,3.97,1.67,1.76,1.79,3.95,65362
07
$GPRMC,145229.000,A,4127.1p±±¬¢∫)©&&KLõ37,≈Õ∫bb•ÈS“*UÀL7,,,,,2.15,1.94,0.92*
SENSORS,2.85,5.06,2.80,3.97,1.67,1.76,1.79,3.95,65880
SENSORS,2.85,5.06,2.80,3.98,1.67,1.76,1.79,3.95,66143
SENSORS,2.86,5.06,2.80,3.97,1.67,1.76,1.79,3.95,66468
SENSORS,2.85,5.06,2.80,3.97,1.67,1.76,1.79,3.95,66736
íPGG±145231.000,4127.1885,N,08417.9658,W,1,07,1.83,228.7,M,-33.,,,,,2.15,1.94,0.92*
SENSORS,2.86,5.06,2.80,3.97,1.67,1.76,1.79,3.95,67333
SENSORS,2.86,5.06,2.80,3.97,1.67,1.76,1.79,3.95,67596
SENSORS,2.86,5.06,2.80,3.97,1.67,1.76,1.79,3.95,67860
SENSORS,2.87,5.06,2.80,3.97,1.67,1.76,1.79,3.95,68164
A:≈¢í	âIì'%KŒLó96r]±bÇbÑI	)©¶&KSñ*5ëAö)iS¶LLñ32…±öä,âââ&&M,,,,,2.15,1.94,0.92*
SENSORS,2.87,5.06,2.80,3.97,1.67,1.76,1.79,3.95,68678
SENSORS,2.86,5.06,2.80,3.97,1.67,1.76,1.79,3.95,68942
SENSORS,2.87,5.06,2.80,3.97,1.67,1.76,1.79,3.95,69258
SENSORS,2.86,5.06,2.80,3.97,1.67,1.76,1.79,3.95,69529
$GPGGA,145234.000,4127.1887,N,08417.9660,W,1,07,1.83,229.0,M,-3,,,,,2.15,1.94,0.92*
SENSORS,2.87,5.06,2.80,3.97,1.67,1.76,1.79,3.95,70043
SENSORS,2.86,5.06,2.80,3.97,1.67,1.76,1.79,3.95,70322
SENSORS,2.87,5.06,2.80,3.97,1.67,1.76,1.79,3.95,70585
SENSORS,2.87,5.06,2.80,3.97,1.67,1.76,1.79,3.95,70849
:u±¢™íâäí∫rä¬¬∫br±08417.9660,W,1,07,1.83,229.0,M,-33.7,M,,*51,77,247,44,14,73,01
SENSORS,2.86,5.06,2.80,3.97,1.67,1.76,1.79,3.95,71451
SENSORS,2.87,5.06,2.80,3.97,1.67,1.76,1.79,3.95,71714
SENSORS,2.86,5.06,2.80,3.97,1.67,1.76,1.79,3.95,72010
SENSORS,2.86,5.06,2.80,3.97,1.67,1.76,1.79,3.95,72279
4,40,32,59,073,44,25,41,072,41n5ë:ue≈âIì&&&Nòñ38b±≈bä≤iâ	&&&Lñò1,77,247,44,14,73,01
SENSORS,2.87,5.06,2.80,3.97,1.67,1.76,1.79,3.95,72790
SENSORS,2.87,5.06,2.80,3.97,1.67,1.76,1.79,3.95,73105
SENSORS,2.88,5.06,2.80,3.97,1.67,1.76,1.79,3.95,73377
SENSORS,2.88,5.06,2.80,3.97,1.67,1.76,1.79,3.95,73641
$GPGGA,145238.000,4127.1887,N,08417.9660,W,1,07,1.83,229.0,M,-3,-33.7,M,,*51
$GPG1
SENSORS,2.87,5.06,2.80,3.97,1.67,1.76,1.79,3.95,74217
SENSORS,2.88,5.06,2.80,3.97,1.67,1.76,1.79,3.95,74481
SENSORS,2.88,5.06,2.80,3.97,1.67,1.76,1.79,3.95,74744
SENSORS,2.88,5.06,2.80,3.97,1.67,1.76,1.79,3.95,75061
SA,A,3,25,01,14,32,22,31,12,,,,XπΩbíTIIì	S!*™KL:23ú¡±
¢äbä	Sì',-33.7,M,,*51
$GPG1
SENSORS,2.87,5.06,2.80,3.97,1.67,1.76,1.79,3.95,75578
SENSORS,2.89,5.06,2.80,3.97,1.67,1.76,1.79,3.95,75841
SENSORS,2.88,5.06,2.79,3.97,1.67,1.76,1.79,3.95,76166
SENSORS,2.89,5.06,2.79,3.97,1.67,1.76,1.79,3.95,76433
$GPGGA,145241.000,4127.1887,N,08417.9660,W,1,07,1.83,229.0,M,-3,-33.7,M,,*51
$GPG1
SENSORS,2.87,5.06,2.80,3.97,1.67,1.76,1.79,3.95,77021
SENSORS,2.88,5.06,2.79,3.97,1.67,1.76,1.79,3.95,77292
SENSORS,2.88,5.06,2.79,3.97,1.67,1.76,1.79,3.95,77555
SENSORS,2.88,5.06,2.79,3.97,1.67,1.76,1.79,3.95,77834
:Au≈)Qìì&LMLõ.1‡±±¬¢)…&LÀó3,dπbjjt©äRSAI®©A,±±í™bä4IâiäbbƒƒIr,-33.7,M,,*51
$GPG1
SENSORS,2.88,5.06,2.80,3.97,1.67,1.76,1.79,3.95,78351
SENSORS,2.88,5.06,2.79,3.97,1.67,1.76,1.79,3.95,78614
SENSORS,2.89,5.06,2.79,3.97,1.67,1.76,1.79,3.95,78934
SENSORS,2.88,5.06,2.79,3.97,1.67,1.76,1.79,3.95,79200
$GPGGA,145244.000,4127.1887,N,08≈π ≤ÇÈ)	&	öIrbä©iör‘äâI”S!u),-33.7,M,,*51
$GPG1
SENSORS,2.89,5.06,2.79,3.97,1.67,1.76,1.79,3.95,79711
SENSORS,2.90,5.06,2.79,3.97,1.67,1.76,1.79,3.95,80021
SENSORS,2.90,5.06,2.79,3.97,1.67,1.76,1.79,3.95,80285
SENSORS,2.89,5.06,2.80,3.97,1.67,1.76,1.79,3.95,80548
$GPGGA,145245.000,4127.1887,N,08417.9660,W,1,07,2.51,229.0,M,-31,12,,,,,,2.05,1.83,
SENSORS,2.88,5.06,2.79,3.97,1.67,1.76,1.79,3.95,81187
SENSORS,2.88,5.06,2.79,3.97,1.67,1.76,1.79,3.95,81454
SENSORS,2.91,5.06,2.79,3.97,1.67,1.76,1.79,3.95,81750
SENSORS,2.89,5.06,2.80,3.97,1.67,1.76,1.79,3.95,82017
0.91*04
$GPGSV,4,1,13,31,77,2n—±ä¢t	ââ&&MNò3,4±’¢äbíâIÈS!™*Kñ1,12,,,,,,2.05,1.83,
SENSORS,2.90,5.06,2.79,3.97,1.67,1.76,1.79,3.95,82528
SENSORS,2.90,5.06,2.79,3.97,1.67,1.76,1.79,3.95,82855
SENSORS,2.90,5.06,2.79,3.97,1.67,1.76,1.79,3.95,83127
SENSORS,2.90,5.06,2.80,3.97,1.67,1.76,1.79,3.95,83391
$GPGGA,145248.000,4127.1887,N,08417.9660,W,1,07,1.83,229.0,M,-3SA,A,3,25,01,14,32,,
SENSORS,3.09,5.06,2.80,3.97,1.67,1.76,1.79,3.95,83948
SENSORS,2.90,5.06,2.80,3.97,1.67,1.76,1.79,3.95,84211
SENSORS,2.90,5.06,2.80,3.97,1.67,1.76,1.79,3.95,84475
SENSORS,2.90,5.06,2.80,3.97,1.67,1.76,1.79,3.95,84797
22,31,12,,,,,,2.05,1.83,0.91*04Aj5 		)â&¶LNññ08bπŸ≤Çt≈…ì”&ßKSA,A,3,25,01,14,32,,
SENSORS,2.90,5.06,2.80,3.97,1.67,1.76,1.79,3.95,85316
SENSORS,2.89,5.06,2.80,3.97,1.67,1.76,1.79,3.95,85579
SENSORS,2.90,5.06,2.79,3.97,1.67,1.76,1.79,3.95,85904
SENSORS,2.90,5.06,2.80,3.97,1.67,1.76,1.79,3.95,86171
$GPGGA,145251.000,4127.1887,N,08417.9660,W,1,07,1.83,229.0,M,-3SA,A,3,25,01,14,32,,
SENSORS,2.89,5.06,2.79,3.97,1.67,1.76,1.79,3.95,86763
SENSORS,2.91,5.06,2.79,3.97,1.67,1.76,1.79,3.95,87034
SENSORS,2.91,5.06,2.80,3.97,1.67,1.76,1.79,3.95,87299
SENSORS,2.88,5.06,2.80,3.97,1.67,1.76,1.79,3.95,87613
$GP±¢íD…ä	'¶KN60,±±Ç∫)	&¶LSñ3.X±R™ÇHà™‘PPKMò1,—ÕíbííböäbbSA,A,3,25,01,14,32,,
SENSORS,2.91,5.06,2.80,3.97,1.67,1.76,1.79,3.95,88129
SENSORS,2.90,5.06,2.80,3.97,1.67,1.76,1.79,3.95,88393
SENSORS,3.02,5.06,2.80,3.97,1.67,1.76,1.79,3.95,88709
SENSORS,2.90,5.06,2.80,3.97,1.67,1.76,1.79,3.95,88980
$GPGGA,145254.000,4127.1887,N,08417.9660,W,1,07,1.83,229.0,M,-3SA,A,3,25,01,14,32,,
SENSORS,2.91,5.06,2.80,3.97,1.67,1.76,1.79,3.95,89494
SENSORS,2.91,5.06,2.79,3.97,1.67,1.76,1.79,3.95,89772
SENSORS,2.92,5.06,2.80,3.97,1.67,1.76,1.79,3.95,90036
SENSORS,2.90,5.06,2.79,3.97,1.67,1.76,1.79,3.95,90299
$Gé±14d’¡Çb∫rä¬¬∫br±08417.9660,W,1,08,1.61,229.0,M,-33.7,M,,*,73,015,40,32,59,07,
SENSORS,2.90,5.06,2.80,3.97,1.67,1.76,1.79,3.95,90916
SENSORS,2.91,5.06,2.79,3.97,1.67,1.76,1.79,3.95,91180
SENSORS,2.92,5.06,2.79,3.97,1.67,1.76,1.79,3.95,91466
SENSORS,2.92,5.06,2.79,3.97,1.67,1.76,1.79,3.95,91735
3,43,25,41,072,42*72
$GPGSV,4,XÕ…íb¬i…&•&ñMñ35`±…bíbDdI)iìì!,73,015,40,32,59,07,
SENSORS,2.90,5.06,2.80,3.97,1.67,1.76,1.79,3.95,92246
SENSORS,2.91,5.06,2.79,3.97,1.67,1.76,1.79,3.95,92568
SENSORS,2.91,5.06,2.80,3.97,1.67,1.76,1.79,3.95,92834
SENSORS,2.91,5.06,2.79,3.97,1.67,1.76,1.79,3.95,93099
$GPGGA,145258.000,4127.1887,N,08417.966±±bÇ¬)…&¶	bä©i#âI©§à
j1.61,229.0,M,-33.7,,
SENSORS,2.91,5.06,2.80,3.97,1.67,1.76,1.79,3.95,93661
SENSORS,2.91,5.06,2.79,3.97,1.67,1.76,1.79,3.95,93924
SENSORS,2.90,5.06,2.80,3.97,1.67,1.76,1.79,3.95,94188
SENSORS,2.91,5.06,2.79,3.97,1.67,1.76,1.79,3.95,94512
M,,*58
$GPGSA,A,3,25,01,14,32,dÕ±Çöâââìß•Lõñ.91¡5":%’ä)SìMNòò1.61,229.0,M,-33.7,,
SENSORS,2.91,5.06,2.79,3.97,1.67,1.76,1.79,3.95,95027
SENSORS,2.92,5.06,2.79,3.97,1.67,1.76,1.79,3.95,95291
SENSORS,2.90,5.06,2.79,3.97,1.67,1.76,1.79,3.95,95613
SENSORS,2.92,5.06,2.79,3.97,1.67,1.76,1.79,3.95,95882
$GPGGA,145301.000,4127.1887,N,08417.9660,W,1,09,0.99,229.0,M,-31.61,229.0,M,-33.7,,
SENSORS,2.91,5.06,2.79,3.97,1.67,1.76,1.79,3.95,96470
SENSORS,2.91,5.06,2.79,3.97,1.67,1.76,1.79,3.95,96739
SENSORS,2.92,5.06,2.79,3.97,1.67,1.76,1.79,3.95,97003
SENSORS,2.91,5.06,2.79,3.97,1.67,1.76,1.79,3.95,97266
$†±¢™rD)…äS'MN´,1`±r $T‘ä©”&•Sñ:D
ëAM±±±’¡bä¢böíbí4bbäíbÇö1.61,229.0,M,-33.7,,
SENSORS,2.92,5.06,2.79,3.97,1.67,1.76,1.79,3.95,97778
SENSORS,2.92,5.06,2.79,3.97,1.67,1.76,1.79,3.95,98041
SENSORS,2.91,5.06,2.79,3.97,1.67,1.76,1.79,3.95,98329
SENSORS,2.91,5.06,2.79,3.97,1.67,1.76,1.79,3.95,98601
§T(LS”â	âì∫rä¬bä	ä∫r ≤™t≈â	)rÇíb¬T‘©iör∫bäâI!!TP)±3,25,01,14,1.61,229.0,M,-33.7,,
SENSORS,2.93,5.06,2.79,3.97,1.67,1.76,1.79,3.95,99112
SENSORS,2.92,5.06,2.79,3.97,1.67,1.76,1.79,3.95,99441
SENSORS,2.92,5.06,2.79,3.97,1.67,1.76,1.79,3.95,99709
SENSORS,2.93,5.06,2.79,3.97,1.67,1.76,1.79,3.95,99973
$GPGGA,145305.000,4127.1884,N,08417.9659,W,1,09,1.02,228.5,M,-3,0.99,228.5,M,-33.7,
SENSORS,2.93,5.06,2.79,3.97,1.67,1.76,1.79,3.95,100598
SENSORS,2.93,5.06,2.79,3.97,1.67,1.76,1.79,3.95,100868
SENSORS,2.92,5.06,2.79,3.97,1.67,1.76,1.79,3.95,101133
SENSORS,2.92,5.06,2.79,3.97,1.67,1.76,1.79,3.95,101426
,M,,*59
$GPGSA,A,3,25,01,14,32d±≈bääâââ#&NLNñ0.`¡5":ueâ))¶•K,0.99,228.5,M,-33.7,
SENSORS,2.93,5.06,2.79,3.97,1.67,1.76,1.79,3.95,101938
SENSORS,2.92,5.06,2.79,3.97,1.67,1.76,1.79,3.95,102254
SENSORS,2.92,5.06,2.79,3.97,1.67,1.76,1.79,3.95,102529
SENSORS,2.93,5.06,2.79,3.97,1.67,1.76,1.79,3.95,102793
$GPGGA,145308¡¡b¢∫)br±·¢är≤b∫±±ÂbÇr I	r™bjjöÈ©äâ•§Èu)±±’¡±¢bö3,N,08417.9659,W,1,,
SENSORS,2.93,5.06,2.79,3.97,1.67,1.76,1.79,3.95,103372
SENSORS,2.93,5.06,2.79,3.97,1.67,1.76,1.79,3.95,103636
SENSORS,2.93,5.06,2.79,3.97,1.67,1.76,1.79,3.95,103902
SENSORS,2.93,5.06,2.79,3.97,1.67,1.76,1.79,3.94,104213
09,0.99,228.5,M,-33.7,M,,*51
$†Mb
4I		&&KLô&31b±…bÇƒââì&%NNò83,N,08417.9659,W,1,,
SENSORS,2.93,5.06,2.79,3.97,1.67,1.76,1.79,3.95,104730
SENSORS,2.92,5.06,2.79,3.97,1.67,1.76,1.79,3.95,104994
SENSORS,2.93,5.06,2.79,3.97,1.67,1.76,1.79,3.95,105317
SENSORS,2.92,5.06,2.79,3.97,1.67,1.76,1.79,3.95,105588
$GPGGA,145311.000,4127.1883,N,08417.9659,W,1,09,0.99,228.5,M,-33,N,08417.9659,W,1,,
SENSORS,2.92,5.06,2.79,3.97,1.67,1.76,1.79,3.95,106170
SENSORS,2.93,5.06,2.79,3.97,1.67,1.76,1.79,3.95,106444
SENSORS,2.93,5.06,2.79,3.97,1.67,1.76,1.79,3.95,106708
SENSORS,2.93,5.06,2.79,3.97,1.67,1.76,1.79,3.95,106974
íPGG±—™öâIì&ß&ßò84›Â≤™t≈Sìß%&úöM,fπ7,M,,j5ëA
±A,∏’¡äbä4íbííb3,N,08417.9659,W,1,,
SENSORS,2.93,5.06,2.79,3.97,1.67,1.76,1.79,3.95,107487
SENSORS,2.67,5.06,2.79,3.97,1.67,1.76,1.79,3.95,107752
SENSORS,2.92,5.06,2.79,3.97,1.67,1.76,1.79,3.95,108070
SENSORS,2.93,5.06,2.79,3.97,1.67,1.76,1.79,3.95,108346
éA
ä¢™öä¢rÇà∫rä¬¬öbä	)…)SSt≈â	ì&&I¬©©ä©”ÈbjƒI©T“™™
öb™	â)¢bö3,N,08417.9659,W,1,,
SENSORS,2.93,5.06,2.79,3.97,1.67,1.76,1.79,3.95,108857
SENSORS,2.93,5.06,2.79,3.97,1.67,1.76,1.79,3.95,109179
SENSORS,2.93,5.06,2.79,3.97,1.67,1.76,1.79,3.95,109449
SENSORS,2.92,5.06,2.79,3.97,1.67,1.76,1.79,3.95,109714
$GPGGA,145315.000,4127.1883,N,08417.9659,W,1,09,1.02,228.5,M,-322,31,10,12,03,,,,1,
SENSORS,2.92,5.06,2.79,3.97,1.67,1.76,1.79,3.95,110347
SENSORS,2.92,5.06,2.79,3.97,1.67,1.76,1.79,3.95,110616
SENSORS,2.93,5.06,2.79,3.97,1.67,1.76,1.79,3.95,110914
SENSORS,2.92,5.06,2.79,3.97,1.67,1.76,1.79,3.95,111186
.69,1.02,1.35*09
$GPGSV,4,1,13f±›bí∫ââ)”ELMö0,d’±Ç∫b$Ñ	)âì•LC22,31,10,12,03,,,,1,
SENSORS,2.92,5.06,2.79,3.97,1.67,1.76,1.79,3.95,111698
SENSORS,2.92,5.06,2.79,3.97,1.67,1.76,1.79,3.95,112018
SENSORS,2.92,5.06,2.79,3.97,1.67,1.76,1.79,3.95,112292
SENSORS,2.92,5.06,2.79,3.97,1.67,1.76,1.79,3.95,112558
$GPGGA,145318.000,4127.1883,N,08417.9659,W,1,09,1.02,228.4,M,-37,M,,*52
$GPGSA,A,3
SENSORS,2.92,5.06,2.79,3.97,1.67,1.76,1.79,3.95,113121
SENSORS,2.92,5.06,2.79,3.97,1.67,1.76,1.79,3.94,113385
SENSORS,2.93,5.06,2.79,3.97,1.67,1.76,1.79,3.95,113650
SENSORS,2.92,5.06,2.79,3.97,1.67,1.76,1.79,3.95,113973
,25,01,14,32,22,31,10,12,03,,,bŸ±ärb4	Hà™(FMLó00,∞≈›räö…ä	'¶'M7,M,,*52
$GPGSA,A,3
SENSORS,2.93,5.06,2.79,3.97,1.67,1.76,1.79,3.95,114493
SENSORS,2.93,5.06,2.79,3.97,1.67,1.76,1.79,3.95,114757
SENSORS,2.94,5.06,2.79,3.97,1.67,1.76,1.79,3.95,115090
SENSORS,2.94,5.06,2.79,3.97,1.67,1.76,1.79,3.95,115365
:u)S”¶&Çb¢äí∫rä¬¬öbr±08417.9659,W,1,09,1.02,228.4,M,-33.7,M,,*7,M,,*52
$GPGSA,A,3
SENSORS,2.93,5.06,2.79,3.97,1.67,1.76,1.79,3.95,115948
SENSORS,2.93,5.06,2.79,3.97,1.67,1.76,1.79,3.94,116212
SENSORS,2.93,5.06,2.79,3.97,1.67,1.76,1.79,3.95,116477
SENSORS,2.94,5.06,2.79,3.97,1.67,1.76,1.79,3.95,116806
AíâIìß&KNLó96r]±bÇbI	âi&•SñA
ëAiI¶•Lñ,2±≈bä	â&'L7,M,,*52
$GPGSA,A,3
SENSORS,2.94,5.06,2.79,3.97,1.67,1.76,1.79,3.94,117327
SENSORS,2.94,5.06,2.79,3.97,1.67,1.76,1.79,3.95,117592
SENSORS,2.92,5.06,2.79,3.97,1.67,1.76,1.79,3.95,117917
SENSORS,2.94,5.06,2.79,3.97,1.67,1.76,1.79,3.95,118188
$GPGGA,145324.000,4127.1883,N,08417.9659,W,1,09,1.02,228.4,M,-37,M,,*52
$GPGSA,A,3
SENSORS,2.93,5.06,2.79,3.97,1.79,1.75,1.90,3.94,118761
SENSORS,2.97,5.06,2.79,3.98,1.74,1.72,1.68,3.94,119029
SENSORS,2.94,5.06,2.79,3.97,1.82,1.68,1.69,3.94,119294
SENSORS,2.93,5.06,2.79,3.97,1.86,1.72,1.72,3.94,119559
$GPGGA,—Õí™rÇDäí∫rä¬b≈	ä∫r ≤™t≈â	)rÇäb¬D‘©iör∫b≈âIST!‘)iIâ	),17,01,22,282,17,483
SENSORS,2.94,2.91,2.79,3.97,1.78,1.69,1.70,3.94,120132
SENSORS,2.93,2.91,2.79,3.97,1.73,1.71,1.78,3.94,120397
SENSORS,2.94,5.06,2.79,3.97,1.80,1.71,1.76,3.94,120721
SENSORS,2.94,5.06,2.79,3.97,1.85,1.70,1.70,3.94,120988
,21,239,*7C
$GPGSV,3,3,11,03,1X≈±ä≤)â	ìLKLñ04d’©¢§àU(&MLóò,17,01,22,282,17,483
SENSORS,2.93,2.83,2.79,3.97,1.84,1.72,1.72,3.94,121500
SENSORS,2.93,2.83,2.79,3.98,1.80,1.69,1.73,3.94,121790
SENSORS,2.95,2.83,2.79,3.97,1.75,1.66,1.71,3.94,122054
SENSORS,2.94,2.83,2.79,3.97,1.75,1.71,1.78,3.94,122319
$GPGGA,145328.000,4127.1883,N,08417.9659,W,6,01,99.99,228.4,M,-,,,,,,,99.99,99.99,9
SENSORS,2.95,2.83,2.79,3.97,1.71,1.73,1.79,3.94,122874
SENSORS,2.95,2.83,2.79,3.97,1.69,1.73,1.79,3.94,123139
SENSORS,2.95,2.88,2.79,3.97,1.71,1.74,1.79,3.94,123404
SENSORS,2.95,2.85,2.79,3.97,1.66,1.76,1.79,3.94,123718
9.99*30
$GPRMC,145329.000,V,,X¡ÅÇb4∫ââ©%ß!TUñó0,T±±rÇÇÃä	)î¶,,,,,,,99.99,99.99,9
SENSORS,2.94,5.06,2.79,3.97,1.68,1.75,1.79,3.94,124230
SENSORS,2.95,5.06,2.79,3.97,1.65,1.74,1.79,3.94,124495
SENSORS,2.94,5.06,2.79,3.97,1.69,1.74,1.78,3.94,124811
SENSORS,2.95,2.85,2.79,3.97,1.65,1.77,1.79,3.94,125084
A
äöÇÇb¢äí∫rä¬¬öbr±08417.9659,W,6,00,99.99,228.4,M,-33.7,M,,,,,,,,,99.99,99.99,9
SENSORS,2.95,2.85,2.79,3.97,1.66,1.74,1.78,3.94,125660
SENSORS,2.95,2.85,2.79,3.97,1.68,1.75,1.79,3.94,125925
SENSORS,3.24,2.85,2.79,3.97,1.67,1.74,1.80,3.94,126189
SENSORS,2.95,2.85,2.79,3.97,1.67,1.76,1.80,3.94,126478
:u)rb∫(‰ä	S'MNññ00Âπ  $	â©¶&KSñ*65ë:u)'%KÀñ,,XÂ  bî))iYH“*™,,,,,,,99.99,99.99,9
SENSORS,2.94,2.85,2.79,3.97,1.67,1.74,1.79,3.94,126995
SENSORS,2.96,2.85,2.79,3.97,1.68,1.73,1.78,3.94,127260
SENSORS,2.95,2.85,2.79,3.97,1.68,1.75,1.80,3.94,127583
SENSORS,2.95,2.85,2.79,3.97,1.68,1.75,1.79,3.94,127848
$GPGGA,145334.000,,,,,0,00,,,M,,M,,*7C)A))âââââââââRTHà%j)©,,,,,,,99.99,99.99,9
SENSORS,2.94,2.85,2.79,3.97,1.68,1.75,1.80,3.94,128360
SENSORS,2.96,2.85,2.79,3.97,1.71,1.76,1.79,3.94,128624
SENSORS,2.95,2.85,2.79,3.97,1.71,1.75,1.78,3.94,128889
SENSORS,2.94,2.85,2.79,3.97,1.68,1.74,1.81,3.94,129154
$GPGGA,145335.000,,,,,0,00,,,M,,M,,*7D
$GPGSA,A,1,,,,,,,,,,,,,4,73,016,,32,58,0749
SENSORS,2.96,2.85,2.79,3.97,1.67,1.75,1.78,3.94,129729
SENSORS,2.96,2.85,2.79,3.97,1.69,1.75,1.79,3.94,129993
SENSORS,2.95,2.85,2.79,3.97,1.68,1.75,1.79,3.94,130258
SENSORS,2.95,2.85,2.79,3.97,1.67,1.76,1.79,3.94,130542
,13,25,41,071,*76
$GPGSV,3,2,1X…Õ¬bÇƒ)¶%Lôñ82,¡±≤bö§ÈT“™*K4,73,016,,32,58,0749
SENSORS,2.95,2.85,2.79,3.97,1.67,1.76,1.79,3.94,131054
SENSORS,2.95,2.85,2.79,3.97,1.67,1.76,1.79,3.94,131318
SENSORS,2.96,2.85,2.79,3.97,1.67,1.76,1.79,3.94,131586
SENSORS,2.95,2.85,2.79,3.97,1.68,1.76,1.79,3.94,131850
“u±145338.000,,,,,0,00,,,M,,M,,*70
$GPGSA,A,1,,,,,,,,,,,,,,4,73,016,,32,58,0749
SENSORS,2.95,2.85,2.79,3.97,1.67,1.76,1.79,3.94,132392
SENSORS,2.95,2.85,2.79,3.97,1.67,1.76,1.79,3.94,132661
SENSORS,2.95,2.85,2.79,3.97,1.67,1.76,1.79,3.94,132926
SENSORS,2.96,2.85,2.79,3.98,1.68,1.75,1.79,3.94,133191
Èu*±—ÕÂrÇÇƒâââ	bbƒ≈©äâIÈ§tu±X±±±±bbbbbbbb)™H“™()¢öd≈âââ	rÇÇb4,73,016,,32,58,0749
SENSORS,2.95,2.85,2.79,3.97,1.68,1.76,1.79,3.94,133703
SENSORS,2.95,2.85,2.79,3.97,1.68,1.76,1.79,3.94,133967
SENSORS,2.93,2.85,2.79,3.97,1.68,1.76,1.78,3.94,134233
SENSORS,2.96,2.85,2.79,3.97,1.68,1.76,1.79,3.94,134554
$GPGGA,145341.000,,,,,0,00,,,M,,M,,*7E
$GPGSA,A,1,,,,,,,,,,,,,4,73,016,,32,58,0749
SENSORS,2.95,2.85,2.79,3.97,1.67,1.76,1.79,3.94,135070
SENSORS,2.96,2.85,2.79,3.97,1.68,1.76,1.79,3.94,135400
SENSORS,2.96,2.85,2.79,3.97,1.67,1.75,1.79,3.94,135666
SENSORS,2.95,2.85,2.79,3.97,1.67,1.75,1.79,3.94,135931
ÈÍ‘T•LMö2.`0,,,,`¡±±±,M,,n5ëA
±A,X±±±±bbbbbbRä™Hà™(&S”rÇd≈bbb4,73,016,,32,58,0749
SENSORS,2.95,2.85,2.79,3.97,1.66,1.76,1.79,3.94,136480
SENSORS,2.97,2.85,2.79,3.97,1.66,1.76,1.79,3.94,136744
SENSORS,2.96,2.85,2.79,3.97,1.66,1.76,1.79,3.94,137010
SENSORS,2.95,2.85,2.79,3.97,1.66,1.76,1.79,3.94,137317
$GPGGA,145343.000,,,,,0`±±jbjâIÈ®!™™KP1,,X±qbbƒââRT!*™KLö34\¡±≤4,73,016,,32,58,0749
SENSORS,2.97,2.85,2.79,3.97,1.66,1.76,1.79,3.94,137830
SENSORS,2.95,2.85,2.79,3.97,1.67,1.75,1.79,3.94,138094
SENSORS,2.96,2.85,2.79,3.97,1.66,1.76,1.79,3.94,138384
SENSORS,2.95,2.85,2.79,3.97,1.65,1.76,1.79,3.94,138649
$GPGGA,145345.000,,,,,0,00,,,M,,M,,*7A
$GPGSA,A,1,,,,,,,,,,,,,4,73,016,,32,58,0749
SENSORS,2.96,2.85,2.79,3.97,1.65,1.75,1.78,3.94,139161
SENSORS,2.96,2.85,2.79,3.97,1.64,1.77,1.80,3.94,139486
SENSORS,2.97,2.85,2.79,3.97,1.64,1.74,1.81,3.94,139757
SENSORS,2.85,2.85,2.79,3.97,1.67,1.76,1.77,3.94,140022
$GPGGA,145346.000,,,,,0,00,,,M,,M,,*79
$GPGSA,A,1,,,,,,,,,,,,,4,73,016,,32,58,0749
SENSORS,2.96,2.85,2.79,3.97,1.65,1.75,1.79,3.94,140534
SENSORS,2.96,2.85,2.79,3.97,1.65,1.76,1.79,3.94,140798
SENSORS,2.97,2.85,2.79,3.97,1.66,1.76,1.79,3.94,141064
SENSORS,2.99,2.85,2.79,3.97,1.67,1.77,1.79,3.94,141357
$GPGGA,145348.000,,,,,0,00,,,M,,M,,*77
$GPGSA,A,1,,,,,,,,,,,,,4,73,016,,32,58,0749
SENSORS,2.97,2.85,2.79,3.97,1.66,1.76,1.79,3.94,141869
SENSORS,2.97,2.85,2.79,3.97,1.65,1.76,1.79,3.94,142134
SENSORS,2.96,2.85,2.79,3.97,1.65,1.76,1.79,3.94,142398
SENSORS,2.98,2.85,2.79,3.97,1.65,1.76,1.79,3.94,142663
$GPGGA,145349.000,,,,,0,00,,,M,,M,,*76
$GPGSA,A,1,,,,,,,,,,,,,4,73,016,,32,58,0749
SENSORS,2.97,2.85,2.79,3.97,1.66,1.76,1.79,3.94,143175
SENSORS,2.97,2.85,2.79,3.97,1.65,1.76,1.79,3.94,143439
SENSORS,2.97,2.85,2.79,3.97,1.65,1.76,1.79,3.94,143705
SENSORS,2.98,2.85,2.79,3.97,1.65,1.76,1.79,3.94,143969
$GPGGA,145350.000,,,,,0,00,,,M,,M,,*7E
$GPGSA,A,1,,,,,,,,,,,,,,3,2,10,22,38,305,,9
SENSORS,2.97,2.85,2.79,3.97,1.65,1.76,1.79,3.94,144537
SENSORS,2.98,2.85,2.79,3.97,1.65,1.76,1.79,3.94,144802
SENSORS,2.99,2.85,2.79,3.97,1.65,1.76,1.79,3.94,145067
SENSORS,2.99,2.85,2.79,3.97,1.64,1.76,1.79,3.94,145344
10,30,156,,01,22,282,,03,16,317T
5":ueii)&&Lñô,,1±—í≤bÈHà™(LM,3,2,10,22,38,305,,9
SENSORS,2.97,2.85,2.79,3.97,1.65,1.74,1.80,3.94,145855
SENSORS,2.99,2.85,2.79,3.97,1.66,1.77,1.80,3.94,146120
SENSORS,2.97,2.85,2.79,3.97,1.66,1.77,1.78,3.94,146391
SENSORS,2.99,2.85,2.79,3.97,1.68,1.75,1.78,3.94,146656
íGPé±¢™™örÇÇÇbbbbbÇbÇÇbbbj±,M,,*7D
$GPGSA,A,1,,,,,,,,,,,,,,,*,3,2,10,22,38,305,,9
SENSORS,2.98,2.85,2.79,3.97,1.67,1.77,1.78,3.94,147226
SENSORS,2.98,2.85,2.79,3.97,1.67,1.77,1.79,3.94,147502
SENSORS,2.98,2.85,2.79,3.97,1.65,1.74,1.76,3.94,147766
SENSORS,2.98,3.18,2.79,3.97,1.70,1.78,1.81,3.94,148031
:A±¢™™rÇbbbbbÇ	ââ©ääâIÈ™H“‘(P)ƒâââââââââI)T!™()™™rÇb≤±bb,3,2,10,22,38,305,,9
SENSORS,2.99,2.87,2.79,3.97,1.65,1.76,1.79,3.94,148543
SENSORS,2.99,2.87,2.79,3.97,1.63,1.76,1.78,3.94,148807
SENSORS,2.99,2.87,2.79,3.97,1.63,1.76,1.78,3.94,149072
SENSORS,3.00,2.87,2.79,3.97,1.64,1.74,1.81,3.94,149399
$GPGGA,145356.000,,,,,0,06,,,M,,M,,*7E
$GPGSA,A,1,,,,,,,,,,,,,,3,2,10,22,38,305,,9
SENSORS,2.99,2.87,2.79,3.97,1.63,1.75,1.78,3.94,149916
SENSORS,2.99,2.87,2.79,3.97,1.63,1.76,1.78,3.94,150219
SENSORS,2.99,2.87,2.79,3.97,1.65,1.75,1.78,3.94,150491
SENSORS,2.98,2.87,2.79,3.97,1.67,1.78,1.80,3.94,150756
íTT)©””ì&&âär¬¬…ä	¬¢är öÈ)bÇ¬bä	âIìì')©iÈ©äâI!!“j)iSbä¢bb)â	,3,2,10,22,38,305,,9
SENSORS,2.98,2.94,2.79,3.97,1.66,1.76,1.79,3.94,151331
SENSORS,2.98,2.89,2.79,3.97,1.66,1.75,1.79,3.94,151597
SENSORS,3.00,2.90,2.79,3.97,1.65,1.76,1.79,3.94,151861
SENSORS,2.99,2.91,2.79,3.97,1.65,1.76,1.79,3.94,152181
$GPGGA,14f·¡ÇÇD‰	ît≈â	&LKLó,M,Õπ∫b≈I©S“T™ññ3,≈≈¢b$)âS&&Kññ1.,3,2,10,22,38,305,,9
SENSORS,3.00,2.88,2.79,3.97,1.65,1.76,1.79,3.94,152700
SENSORS,3.00,2.88,2.79,3.97,1.65,1.76,1.79,3.94,152965
SENSORS,3.00,2.88,2.79,3.97,1.65,1.76,1.78,3.94,153273
SENSORS,3.00,2.87,2.79,3.97,1.65,1.76,1.79,3.94,153538
$GPGGA,145400.000,4127.1876,N,08417.9754,W,1,08,1.06,213.5,M,-3,3,2,10,22,38,305,,9
SENSORS,2.99,2.87,2.79,3.97,1.65,1.76,1.78,3.94,154090
SENSORS,3.00,2.87,2.79,3.97,1.64,1.76,1.79,3.94,154409
SENSORS,3.00,2.87,2.79,3.97,1.64,1.76,1.79,3.94,154682
SENSORS,3.00,2.87,2.79,3.97,1.64,1.76,1.79,3.94,154946
:u±—™¢äb¢äí∫r≤b≈	¢ä∫r Çt≈	 bärÇ$™∫‘ä©iör‘ƒI©T“uii&•&ñ¶,3,2,10,22,38,305,,9
SENSORS,2.97,2.87,2.79,3.97,1.65,1.76,1.79,3.94,155459
SENSORS,3.01,2.87,2.79,3.97,1.65,1.76,1.79,3.94,155724
SENSORS,2.99,2.87,2.79,3.97,1.65,1.76,1.79,3.94,156040
SENSORS,2.99,2.87,2.79,3.97,1.65,1.75,1.79,3.94,156310
$A±h—Õ¡¡b¢äí∫rä¬b≈	ä∫r ∫ít≈â	)rÇäb¬4‘ä©”&ÈbãâIìH“‘)ii)¢böí,3,2,10,22,38,305,,9
SENSORS,3.00,2.87,2.79,3.97,1.65,1.75,1.79,3.94,156822
SENSORS,3.01,2.87,2.79,3.97,1.65,1.75,1.79,3.94,157145
SENSORS,3.01,2.87,2.79,3.97,1.66,1.75,1.79,3.94,157417
SENSORS,3.01,2.88,2.79,3.97,1.66,1.75,1.79,3.95,157681
$GPGGA,145404.000,4127.1865,N,08417.9720,W,1,09,1.01,219.6,M,-33,31,14,32,25,10,019
SENSORS,3.01,2.88,2.79,3.97,1.66,1.75,1.79,3.94,158246
SENSORS,3.00,2.88,2.79,3.97,1.66,1.75,1.79,3.94,158512
SENSORS,3.01,2.88,2.79,3.97,1.65,1.75,1.79,3.94,158777
SENSORS,3.01,2.88,2.79,3.97,1.65,1.76,1.79,3.94,159094
,22,03,12,,,,1.68,1.01,1.34*0A
HAI
ä¢™		)â#¶LMMß,0h›Â∫ít≈…I&¶M&3,31,14,32,25,10,019
SENSORS,3.00,2.89,2.79,3.97,1.65,1.75,1.79,3.94,159611
SENSORS,2.99,2.89,2.79,3.97,1.66,1.76,1.79,3.94,159877
SENSORS,3.01,2.89,2.79,3.97,1.65,1.76,1.79,3.94,160160
SENSORS,3.01,2.89,2.79,3.97,1.65,1.76,1.79,3.94,160425
:u*)¢™¢Ç∫rÇÇÇb¢äí∫rä¬≤öbr±08417.9719,W,1,09,1.01,219.7,M,-33.7,3,31,14,32,25,10,019
SENSORS,3.01,2.90,2.79,3.97,1.65,1.75,1.79,3.94,160998
SENSORS,3.00,2.90,2.79,3.97,1.65,1.75,1.79,3.94,161270
SENSORS,3.00,2.91,2.79,3.97,1.66,1.75,1.79,3.94,161536
SENSORS,3.00,2.91,2.79,3.97,1.64,1.74,1.79,3.94,161800
:urÇÇb¢äí≤‰ä	¬¢ä∫))t≈	 bbär∫bjjörb≈âI”5":uiböäbä4b™)ÇbÇä3,31,14,32,25,10,019
SENSORS,3.00,2.91,2.79,3.97,1.63,1.76,1.78,3.94,162312
SENSORS,3.01,2.91,2.79,3.97,1.65,1.76,1.79,3.94,162577
SENSORS,3.00,2.92,2.79,3.97,1.65,1.76,1.79,3.94,162842
SENSORS,3.00,2.91,2.79,3.97,1.65,1.76,1.79,3.94,163137
$GPGGA,145410.000,4127.1862,N,08417.9719,W,1,09,1.01,219.8,M,-33,31,14,32,25,10,019
SENSORS,3.00,2.92,2.79,3.97,1.63,1.74,1.79,3.94,163648
SENSORS,3.00,2.92,2.79,3.97,1.63,1.77,1.78,3.94,163978
SENSORS,3.02,2.92,2.79,3.97,1.66,1.76,1.79,3.94,164281
SENSORS,3.00,2.92,2.79,3.97,1.65,1.76,1.79,3.94,164545
$GPGGA,145411.00±≈í∫‰ä	'Sr∫ t≈	 bbär¬bjjörb≈âIS5":uiböäbäb,A,3,31,14,32,25,109
SENSORS,3.00,2.92,2.79,3.97,1.65,1.76,1.79,3.94,165109
SENSORS,3.01,2.92,2.79,3.97,1.66,1.75,1.79,3.94,165374
SENSORS,3.00,2.92,2.79,3.97,1.65,1.75,1.79,3.94,165639
SENSORS,3.01,2.92,2.79,3.97,1.65,1.75,1.79,3.94,165963
,01,22,03,12,,,,1.68,1.01,1.34*Ç5":%’ä)S&&òòA,4…π¬≤í…ä	'¶ßLN´,,A,3,31,14,32,25,109
SENSORS,3.02,2.92,2.79,3.97,1.65,1.75,1.79,3.94,166486
SENSORS,3.01,2.87,2.79,3.97,1.66,1.75,1.79,3.94,166765
SENSORS,3.01,2.87,2.79,3.97,1.66,1.74,1.79,3.94,167035
SENSORS,3.01,2.87,2.79,3.97,1.66,1.74,1.79,3.94,167301
::±ÿ——¡Çb¢äí∫räíƒä	S∫r ∫ät≈S&NLôLN	bj±-33.7,M,,*5E
$GPGSA,A,A,3,31,14,32,25,109
SENSORS,3.01,2.87,2.79,3.97,1.66,1.74,1.79,3.94,167887
SENSORS,3.01,2.87,2.79,3.97,1.66,1.74,1.79,3.94,168159
SENSORS,3.00,2.87,2.79,3.97,1.66,1.74,1.79,3.94,168424
SENSORS,3.01,2.87,2.79,3.97,1.66,1.74,1.79,3.94,168688
$†bä¢âIì&&%NLó97‡]±bb	âI¶')K&Kñ*5
$GPGS±±±öäbböíbí™)â	ì	öb,264,*4B
$GPRMC,149
SENSORS,3.00,2.87,2.79,3.97,1.65,1.74,1.79,3.94,169243
SENSORS,3.01,2.87,2.79,3.97,1.66,1.74,1.79,3.94,169507
SENSORS,3.01,2.87,2.79,3.97,1.66,1.74,1.79,3.94,169827
SENSORS,3.01,2.87,2.79,3.97,1.66,1.74,1.79,3.94,170097
5416.000,A,4127.1862,N,08417.97p]±rÇbi	Sîì!!T™ñ1.0±±jÇrbÖ		4,264,*4B
$GPRMC,149
SENSORS,3.01,2.87,2.79,3.97,1.66,1.74,1.79,3.94,170609
SENSORS,3.01,2.87,2.79,3.97,1.66,1.74,1.79,3.94,170906
SENSORS,3.00,2.87,2.79,3.97,1.66,1.74,1.79,3.94,171170
SENSORS,3.00,2.87,2.79,3.97,1.66,1.74,1.79,3.94,171436
$GPGGA,145418.000,4127.1862,N,08417.9718,W,1,09,1.01,219.8,M,-3,264,*4B
$GPRMC,149
SENSORS,3.01,2.87,2.79,3.97,1.66,1.74,1.79,3.94,171948
SENSORS,3.01,2.87,2.79,3.97,1.66,1.74,1.80,3.94,172254
SENSORS,3.00,2.87,2.79,3.97,1.68,1.75,1.79,3.95,172519
SENSORS,3.00,2.87,2.79,3.97,1.66,1.76,1.79,3.94,172784
$GPGGA,145419.000,4127.1862,N,08417.9718,W,1,09,1.01,219.8,M,-32.99,310317,,,A*,149
SENSORS,3.01,2.87,2.79,3.97,1.66,1.75,1.79,3.94,173316
SENSORS,3.00,2.88,2.79,3.97,1.65,1.75,1.79,3.94,173580
SENSORS,3.00,2.88,2.79,3.97,1.67,1.75,1.79,3.94,173845
SENSORS,3.00,2.88,2.79,3.97,1.66,1.75,1.79,3.95,174170
76
$GPVTG,282.99,T,,M,0.03,N,0`±±•j¯$GPGGA,145421.000,4127.1862.99,310317,,,A*,149
SENSORS,3.00,2.88,2.79,3.97,1.66,1.75,1.79,3.94,174684
SENSORS,3.00,2.88,2.79,3.97,1.66,1.75,1.79,3.94,174996
SENSORS,3.01,2.88,2.79,3.97,1.65,1.75,1.79,3.95,175266
SENSORS,3.00,2.89,2.79,3.97,1.66,1.76,1.79,3.94,175532
Aä¢íírÇÇS”ì&ì‰	é”ìNSt≈bb.rbí )©ä©iö©â•®HàuµPP&¶)âisMò0,02.99,310317,,,A*,149
SENSORS,3.01,2.89,2.79,3.97,1.66,1.75,1.79,3.95,176117
SENSORS,3.00,2.90,2.79,3.97,1.66,1.75,1.79,3.94,176382
SENSORS,3.01,2.90,2.79,3.97,1.65,1.75,1.79,3.94,176647
SENSORS,2.99,2.91,2.79,3.97,1.65,1.75,1.79,3.95,176969
$GPGGA,145423.000h…πä¬b≈	¶ßLKññ09ãrbr‘ä©”óñ,,*	5":u]&¶KL,32…b2.99,310317,,,A*,149
SENSORS,3.00,2.92,2.79,3.97,1.66,1.75,1.79,3.94,177482
SENSORS,2.99,2.92,2.79,3.97,1.67,1.75,1.79,3.95,177747
SENSORS,3.01,2.92,2.79,3.97,1.65,1.75,1.79,3.95,178062
SENSORS,3.00,2.92,2.79,3.97,1.66,1.75,1.79,3.95,178331
$GPGGA,145425.000,4127.1862,N,08417.9718,W,1,09,1.01,219.9,M,-32.99,310317,,,A*,149
SENSORS,3.00,2.92,2.79,3.97,1.67,1.76,1.79,3.94,178855
SENSORS,2.99,2.93,2.79,3.97,1.66,1.75,1.79,3.94,179176
SENSORS,2.99,2.93,2.79,3.97,1.66,1.75,1.79,3.94,179443
SENSORS,3.01,2.93,2.79,3.97,1.66,1.75,1.79,3.94,179708
“‘T&Sìô	ÊñLõ)ì…äöLì)S3LLN\≈,219.9,M,-33.7,M,,*5E
$GPGSA,A,2.99,310317,,,A*,149
SENSORS,3.01,2.93,2.79,3.97,1.66,1.74,1.79,3.94,180220
SENSORS,3.00,2.92,2.79,3.97,1.67,1.74,1.79,3.94,180486
SENSORS,3.01,2.92,2.79,3.97,1.67,1.75,1.79,3.94,180761
SENSORS,3.01,2.92,2.79,3.97,1.66,1.74,1.79,3.95,181042
$GPGGA,1’…¬rÇSí∫rä≤‰ä	gL.97·]±1,09,1.01,219.9,M,-33.7,M,,*50
2.99,310317,,,A*,149
SENSORS,3.01,2.93,2.79,3.97,1.65,1.74,1.79,3.94,181554
SENSORS,3.00,2.93,2.79,3.97,1.68,1.74,1.79,3.94,181871
SENSORS,3.00,2.93,2.79,3.97,1.67,1.73,1.79,3.95,182146
SENSORS,3.00,2.93,2.79,3.97,1.65,1.74,1.79,3.94,182410
$GPGGA≈’¢írS¶ì)í‰ä	¶Lì)S¶b.	≥ì'©ä©iseSKMLC!™ÍPA,3Õ1,14,d…b5430.000,4127.18,149
SENSORS,3.00,2.92,2.79,3.97,1.67,1.74,1.80,3.94,182986
SENSORS,2.99,2.92,2.79,3.97,1.66,1.75,1.79,3.94,183251
SENSORS,2.99,2.93,2.79,3.97,1.65,1.74,1.79,3.94,183516
SENSORS,2.99,2.93,2.79,3.97,1.65,1.73,1.79,3.94,183824
62,N,08417.9718,W,1,09,1.01,219r5±ööÈäRSCI®©±±böäiI&KLôñ03b«b5430.000,4127.18,149
SENSORS,2.99,2.92,2.79,3.97,1.66,1.75,1.79,3.94,184341
SENSORS,3.00,2.93,2.79,3.97,1.66,1.75,1.79,3.94,184605
SENSORS,3.00,2.93,2.79,3.97,1.65,1.77,1.79,3.94,184927
SENSORS,3.00,2.93,2.79,3.97,1.65,1.76,1.78,3.95,185192
$GPGGA,145432.000,4127.1861,N,08417.9719,W,1,09,0.99,219.9,M,-35430.000,4127.18,149
SENSORS,2.99,2.93,2.79,3.97,1.66,1.75,1.79,3.95,185775
SENSORS,2.99,2.93,2.79,3.97,1.65,1.75,1.78,3.94,186045
SENSORS,2.99,2.93,2.79,3.97,1.66,1.75,1.79,3.94,186310
SENSORS,3.00,2.93,2.79,3.97,1.67,1.74,1.79,3.94,186602
:u)©”ì&ò412π·™ ‰	SßLN´1,rîIi)”óñM,TÕR:u](&¶ñö,3XWbÇ$	â)íéâ)I5430.000,4127.18,149
SENSORS,2.99,2.87,2.79,3.97,1.66,1.74,1.80,3.94,187118
SENSORS,2.99,2.87,2.79,3.97,1.65,1.74,1.78,3.94,187383
SENSORS,2.98,2.87,2.79,3.97,1.67,1.75,1.78,3.94,187701
SENSORS,3.00,2.87,2.79,3.97,1.67,1.74,1.79,3.94,187970
$GPGGA,145435.000,4127.1858,N,08417.9718,W,1,09,0.99,219.9,M,-35430.000,4127.18,149
SENSORS,2.98,2.87,2.79,3.97,1.67,1.73,1.79,3.94,188482
SENSORS,2.99,2.87,2.79,3.97,1.66,1.73,1.80,3.95,188782
SENSORS,2.98,2.87,2.79,3.97,1.66,1.74,1.80,3.94,189054
SENSORS,2.91,2.87,2.79,3.97,1.68,1.74,1.79,3.94,189319
$GPGGA,145436.000,4127.1857,N,08417.9720,W,1,09,0.99,219.9,M,-3.99,0.80*0F
$GP,149
SENSORS,2.99,2.87,2.79,3.97,1.66,1.74,1.79,3.95,189870
SENSORS,3.02,2.87,2.79,3.97,1.68,1.74,1.79,3.94,190135
SENSORS,2.99,2.87,2.79,3.97,1.67,1.74,1.79,3.94,190399
SENSORS,2.99,2.87,2.79,3.97,1.66,1.74,1.79,3.94,190713
RMC,145437.000,A,4127.1855,N,08bπ›í.Èìß&LLLñ≈Õä∫ƒ)ÈTr®VTX…πäíD.99,0.80*0F
$GP,149
SENSORS,2.98,2.87,2.79,3.97,1.68,1.75,1.79,3.94,191225
SENSORS,2.98,2.87,2.79,3.97,1.66,1.74,1.79,3.94,191538
SENSORS,2.98,2.87,2.79,3.97,1.65,1.74,1.79,3.94,191807
SENSORS,2.99,2.87,2.79,3.97,1.65,1.73,1.79,3.95,192072
í®GGX—¢ö 	Çbír™íbr±¬é”ìßìM)	Sbíí‘‘öŒÈ©äâ•SC!T‘]•K&¶KL,32,2X.99,0.80*0F
$GP,149
SENSORS,2.98,2.87,2.79,3.97,1.65,1.75,1.79,3.94,192673
SENSORS,2.98,2.87,2.79,3.97,1.67,1.74,1.80,3.94,192937
SENSORS,2.98,2.87,2.79,3.97,1.66,1.74,1.79,3.94,193203
SENSORS,2.98,2.87,2.79,3.97,1.66,1.73,1.79,3.94,193511
A
ä¢rS¶&MLß08ä∫ríÙ≈SLNñ22º±±öö•¶!TAÇÕÕäb4I&Lñò,2XÕäíâì¶KKN.99,0.80*0F
$GP,149
SENSORS,2.98,2.87,2.79,3.97,1.66,1.74,1.79,3.94,194029
SENSORS,2.99,2.87,2.79,3.97,1.66,1.75,1.80,3.94,194294
SENSORS,2.98,2.87,2.79,3.97,1.66,1.75,1.80,3.94,194587
SENSORS,2.97,2.87,2.79,3.97,1.65,1.75,1.79,3.94,194852
$GPGGA,145442.000,4127.1849,N,08417.9729,W,1,09,0.99,220.2,M,-3.99,0.80*0F
$GP,149
SENSORS,2.98,2.87,2.79,3.97,1.65,1.75,1.79,3.94,195404
SENSORS,2.98,2.87,2.79,3.97,1.65,1.75,1.79,3.94,195674
SENSORS,2.97,2.87,2.79,3.97,1.64,1.75,1.79,3.94,195938
SENSORS,2.98,2.87,2.79,3.97,1.64,1.75,1.79,3.94,196203
$Gé±¢™¢örÇÇS”ì&Mb≈	Sìßìb≈b 9r  I	i©äiöŒäI”S!“u∫KPñò,1X…íÆb,N,0.08,K,A*31
,149
SENSORS,2.98,2.87,2.79,3.97,1.64,1.75,1.79,3.94,196731
SENSORS,2.98,2.87,2.79,3.97,1.64,1.75,1.79,3.94,196996
SENSORS,2.98,2.87,2.79,3.97,1.64,1.75,1.79,3.94,197261
SENSORS,2.98,2.87,2.79,3.97,1.65,1.75,1.79,3.95,197551
$GPGGA,145445.000,4127.1847,N,08417.9728,W,1,09,0.99,220.5,M,-3,N,0.08,K,A*31
,149
SENSORS,2.98,2.88,2.79,3.97,1.85,1.66,1.88,3.94,198062
SENSORS,2.98,2.85,2.79,3.97,1.42,1.84,1.76,3.94,198332
SENSORS,2.98,2.85,2.79,3.97,1.21,1.89,1.59,3.94,198647
SENSORS,2.95,2.88,2.79,3.97,1.52,1.95,1.72,3.94,198916
$A±14hŸ¡ÇS¶&¢∫br±08417.9728,W,1,09,0.99,220.5,M,-33.7,M,,*5,N,0.08,K,A*31
,149
SENSORS,2.97,2.98,2.79,3.97,1.74,1.89,1.84,3.94,199513
SENSORS,2.97,2.85,2.79,3.97,1.55,1.70,1.86,3.94,199779
SENSORS,3.00,2.85,2.79,3.97,1.77,1.80,1.81,3.94,200044
SENSORS,2.97,2.86,2.79,3.97,1.56,1.81,1.79,3.94,200358
:u)©”ìL0,b›≈¢¬b≈	¶ß¶Kññ09Ér$©©ä”Ê7,X©	R:u]•Pñò14f±V)S&&Lñ2±b,N,0.08,K,A*31
,149
SENSORS,2.95,2.85,2.79,3.97,1.69,1.75,1.77,3.94,200881
SENSORS,2.95,2.85,2.79,3.96,1.61,1.75,1.78,3.94,201145
SENSORS,2.95,2.85,2.79,3.96,1.64,1.75,1.77,3.94,201448
SENSORS,2.96,2.85,2.79,3.96,1.63,1.71,1.78,3.94,201713
$GPGGA,145449.000,4127.1867,N,08417.9738,W,1,09,0.99,222.1,M,-3,N,0.08,K,A*31
,149
SENSORS,2.95,2.85,2.79,3.96,1.73,1.74,1.83,3.94,202225
SENSORS,2.94,2.85,2.79,3.96,1.62,1.86,1.81,3.94,202515
SENSORS,2.94,2.85,2.79,3.96,1.57,1.74,1.83,3.94,202779
SENSORS,2.94,2.85,2.79,3.96,1.68,1.78,1.81,3.94,203044
$GPGGA,145450.000,4127.1872,N,08417.9766,W,1,09,1.01,223.5,M,-32,58,075,41,25,4,149
SENSORS,2.94,2.85,2.79,3.96,1.65,1.76,1.81,3.94,203635
SENSORS,2.94,2.85,2.79,3.96,1.62,1.73,1.78,3.94,203900
SENSORS,2.94,2.85,2.79,3.96,1.63,1.80,1.77,3.94,204187
SENSORS,2.93,2.85,2.79,3.96,1.62,1.72,1.80,3.94,204462
1,071,39*75
$GPGSV,3,2,11,22,pöÇ4)âI¶õ,3X≈…íb¬4¶&Lñò7,j›jÑ
‘2,58,075,41,25,4,149
SENSORS,2.94,2.85,2.79,3.95,1.70,1.76,1.80,3.94,204974
SENSORS,2.94,2.85,2.79,3.95,1.69,1.80,1.80,3.94,205296
SENSORS,2.93,2.85,2.79,3.95,1.64,1.75,1.82,3.94,205564
SENSORS,2.93,2.85,2.79,3.95,1.69,1.76,1.81,3.94,205830
$GPGGA,145453.000,4127.1777,N,08417.9900,W,1,09,1.01,235.35±ööÈ25,10,01,22,03,1,149
SENSORS,2.92,2.85,2.79,3.95,1.61,1.78,1.79,3.94,206388
SENSORS,2.92,2.85,2.79,3.95,1.67,1.73,1.80,3.94,206653
SENSORS,2.85,2.85,2.78,3.95,1.64,1.75,1.78,3.94,206917
SENSORS,2.93,2.85,2.78,3.95,1.70,1.77,1.79,3.94,207241
2,,,,1.68,1.01,1.34*0A
$GPRMC,h¢™,ââìLKñú41\ÂóÈ©â&&LÀ31Õ›bb25,10,01,22,03,1,149
SENSORS,2.92,2.85,2.78,3.95,1.65,1.77,1.78,3.94,207758
SENSORS,2.99,2.85,2.78,3.95,1.66,1.78,1.78,3.94,208046
SENSORS,2.92,2.85,2.78,3.95,1.67,1.79,1.78,3.94,208376
SENSORS,2.92,2.85,2.78,3.94,1.64,1.77,1.79,3.94,208647
$GP±¢™™Çbí∫)™br±¬é”ìß”•)	XSbí™ä4©äiÊõM,T5
$GPGSA,A,3,31,1,09,1.01,256.2,M,149
SENSORS,2.91,2.85,2.78,3.94,1.68,1.77,1.80,3.94,209211
SENSORS,2.93,2.85,2.78,3.94,1.63,1.75,1.79,3.94,209475
SENSORS,2.93,2.85,2.78,3.94,1.66,1.76,1.79,3.94,209740
SENSORS,2.92,2.85,2.78,3.94,1.65,1.76,1.79,3.94,210076
,-33.7,M,,*57
$GPGSA,A,3,31,14f±W)â	&&Lñô±±r≤∫)	ìMòÜ
$†I5bä,09,1.01,256.2,M,149
SENSORS,2.91,2.85,2.78,3.94,1.63,1.75,1.79,3.94,210596
SENSORS,2.92,2.85,2.78,3.94,1.64,1.75,1.79,3.94,210861
SENSORS,2.92,2.85,2.78,3.94,1.63,1.77,1.78,3.94,211152
SENSORS,2.94,2.85,2.78,3.94,1.66,1.76,1.80,3.94,211417
$GPGGA,145459.000,4127.1753,N,08418.0028,W,1,09,1.01,266.0,M,-3,09,1.01,256.2,M,149
SENSORS,2.92,2.85,2.78,3.94,1.65,1.76,1.80,3.94,211990
SENSORS,2.94,2.85,2.78,3.94,1.65,1.77,1.80,3.94,212262
SENSORS,2.91,2.85,2.78,3.94,1.65,1.78,1.79,3.94,212527
SENSORS,2.92,2.85,2.78,3.93,1.63,1.77,1.79,3.94,212792
ÈÍ‘TKLM00.¡b™‰ä	sLó00f]±1,09Ér IríbjjöŒâI©¬Dà‘PPiibíbíÆ)	305,38,10,29,156,149
SENSORS,2.93,2.85,2.78,3.93,1.64,1.77,1.79,3.94,213374
SENSORS,2.91,2.85,2.78,3.94,1.66,1.76,1.79,3.94,213640
SENSORS,2.92,2.85,2.78,3.93,1.65,1.77,1.79,3.94,213959
SENSORS,2.91,2.85,2.78,3.93,1.67,1.76,1.80,3.94,214236
,38,01,22,282,35,03,17,317,34*7jD:u iiSñô12,Õ± bö	&M&ñL,03í≤4â305,38,10,29,156,149
SENSORS,2.92,2.85,2.78,3.93,1.66,1.75,1.78,3.94,214748
SENSORS,2.92,2.85,2.78,3.93,1.65,1.78,1.79,3.94,215033
SENSORS,2.93,2.85,2.78,3.93,1.65,1.76,1.79,3.94,215298
SENSORS,2.91,2.85,2.78,3.93,1.68,1.78,1.78,3.94,215563
:u*)SSN&	Çb¢äí∫rä∫∫¢br±08418.0160,W,1,09,0.99,284.6,M,-33.7,M*05
$GPRMC,1455,149
SENSORS,2.92,2.85,2.78,3.92,1.65,1.75,1.79,3.94,216112
SENSORS,2.92,2.85,2.78,3.93,1.66,1.77,1.78,3.94,216377
SENSORS,2.93,2.85,2.78,3.92,1.67,1.76,1.77,3.94,216641
SENSORS,2.93,2.85,2.78,3.92,1.67,1.76,1.79,3.94,216945
04.000,A,4127.1766,N,08418.0195Æ±q™¢$Ÿ¶LLññ*76)weES&KKM,π—br*05
$GPRMC,1455,149
SENSORS,2.92,2.85,2.78,3.92,1.68,1.77,1.78,3.94,217463
SENSORS,2.92,2.85,2.78,3.92,1.66,1.76,1.79,3.94,217759
SENSORS,2.93,2.85,2.78,3.92,1.66,1.76,1.79,3.94,218087
SENSORS,2.92,2.85,2.78,3.92,1.68,1.76,1.78,3.94,218359
$GP±¢™™rÇÇâS”ì¶SKä	S'&&È≈â	'LLL301.3,M,ÕÁb≈I©5ëAöä&¶KLií*05
$GPRMC,1455,149
SENSORS,2.94,2.85,2.78,3.92,1.67,1.76,1.79,3.94,218940
SENSORS,2.93,2.85,2.78,3.92,1.65,1.75,1.79,3.94,219205
SENSORS,2.93,2.85,2.78,3.92,1.65,1.75,1.79,3.94,219470
SENSORS,2.94,2.85,2.78,3.92,1.67,1.76,1.79,3.94,219789
$GPGGA,145507.000,4127.177X±·é		”SKKLò9,rÇbr‘ä©”Êõ,MX’5":u]&¶K*05
$GPRMC,1455,149
SENSORS,2.94,2.85,2.78,3.91,1.65,1.75,1.79,3.94,220305
SENSORS,2.94,2.85,2.78,3.91,1.65,1.76,1.79,3.94,220570
SENSORS,2.93,2.85,2.78,3.91,1.66,1.77,1.78,3.94,220886
SENSORS,2.93,2.85,2.78,3.91,1.66,1.76,1.78,3.94,221150
$GPGGA,145509.000,4127.1793,N,08418.0361,W,1,09,1.01,316.1,M,-3*05
$GPRMC,1455,149
SENSORS,2.93,2.85,2.78,3.91,1.67,1.77,1.78,3.94,221739
SENSORS,2.95,2.85,2.78,3.91,1.66,1.77,1.78,3.94,222009
SENSORS,2.93,2.85,2.78,3.91,1.67,1.77,1.78,3.94,222273
SENSORS,2.94,2.85,2.78,3.91,1.66,1.77,1.78,3.94,222538
A:Ç	9%LKLú5,±·é		¶'KLò,πäbäI©äßÊ7,X©ùjD
jPPñò,14Õ±V)âS&&	ö)92,036,38,33,06,1,149
SENSORS,2.95,2.85,2.78,3.91,1.67,1.76,1.78,3.94,223104
SENSORS,2.93,2.85,2.78,3.91,1.66,1.77,1.77,3.94,223369
SENSORS,2.93,2.85,2.78,3.91,1.66,1.77,1.77,3.94,223685
SENSORS,2.94,2.85,2.78,3.90,1.66,1.76,1.78,3.94,223955
04,28,11,03,264,35*4B
$GPRMC,1j≈πÇÇ
S¶LNññ841rÇ¬È)â	&Êô.7X≈Õä2,036,38,33,06,1,149
SENSORS,2.95,2.85,2.78,3.91,1.67,1.77,1.78,3.94,224467
SENSORS,2.95,2.85,2.78,3.90,1.67,1.77,1.79,3.94,224757
SENSORS,2.94,2.85,2.78,3.90,1.67,1.76,1.80,3.94,225022
SENSORS,2.95,2.85,2.78,3.90,1.67,1.77,1.80,3.94,225287
$GPGGA,145513.000,4127.1794,N,08418.0530,W,1,09,1.01,335.5,M,-327.1798,N,08418.,149
SENSORS,2.94,2.85,2.78,3.90,1.66,1.77,1.80,3.94,225833
SENSORS,2.94,2.85,2.78,3.90,1.66,1.76,1.80,3.94,226099
SENSORS,2.94,2.85,2.78,3.90,1.65,1.76,1.79,3.94,226363
SENSORS,2.94,2.85,2.78,3.90,1.65,1.77,1.79,3.94,226694
0587,W,15.88,276.55,310317,,,A*h)teÍIìì¶M´,X’·¬b≈Di)•&C$GPGGA,127.1798,N,08418.,149
SENSORS,2.98,2.85,2.78,3.90,1.65,1.76,1.79,3.94,227215
SENSORS,2.95,2.85,2.78,3.90,1.66,1.76,1.80,3.94,227507
SENSORS,2.94,2.85,2.78,3.90,1.66,1.76,1.79,3.94,227831
SENSORS,2.94,2.85,2.78,3.90,1.65,1.77,1.79,3.94,228103
$†éA≈’™ä≤rÇÇâìì¶&…ä	S'&OMÈ≈SπLLi ‘ä©”Ê7,M±’äj
$GPGSA,A,3,31,9,1.01,350.4,M,-,149
SENSORS,2.95,2.85,2.78,3.89,1.66,1.76,1.79,3.94,228679
SENSORS,2.94,2.85,2.78,3.89,1.66,1.76,1.79,3.94,228944
SENSORS,2.94,2.85,2.78,3.89,1.66,1.77,1.78,3.94,229210
SENSORS,2.94,2.85,2.78,3.89,1.65,1.77,1.79,3.94,229512
33.7,M,,*53
$GPGSA,A,3,31,14,3XWIâ	&Ê,,bŸ±rÇä)π¶&òÜ
$†5
±¢S9,1.01,350.4,M,-,149
SENSORS,2.96,2.85,2.78,3.89,1.66,1.77,1.79,3.94,230029
SENSORS,2.94,2.85,2.78,3.89,1.66,1.77,1.79,3.94,230294
SENSORS,2.72,2.85,2.78,3.89,1.66,1.76,1.79,3.94,230608
SENSORS,2.94,2.85,2.78,3.89,1.66,1.77,1.79,3.94,230874
$GPGGA,145519.000,4127.1782,N,08418.0826,W,1,09,0.98,360.7,M,-39,1.01,350.4,M,-,149
SENSORS,2.95,2.85,2.78,3.89,1.66,1.77,1.79,3.94,231454
SENSORS,2.94,2.85,2.78,3.89,1.66,1.76,1.79,3.94,231726
SENSORS,2.95,2.85,2.77,3.89,1.66,1.76,1.79,3.94,231990
SENSORS,2.95,2.85,2.77,3.88,1.66,1.76,1.79,3.94,232255
tu*)SS&L0,≈›räbä	sLó87X±bÇbì'Kôó,MZÕt©äIS“*Í,X±31,14f±WbbÇäbíí264,33*42
$GPRM,149
SENSORS,2.96,2.85,2.77,3.88,1.66,1.77,1.79,3.94,232817
SENSORS,2.95,2.85,2.77,3.88,1.66,1.76,1.78,3.94,233082
SENSORS,2.94,2.85,2.78,3.88,1.65,1.76,1.78,3.94,233402
SENSORS,2.96,2.85,2.77,3.88,1.65,1.77,1.79,3.94,233671
C,145521.000,A,4127.1758,N,0841rÇöt≈ìS%Êf›±öääƒâ)%Cí®TG,’πb≈©ä264,33*42
$GPRM,149
SENSORS,2.96,2.85,2.77,3.88,1.66,1.76,1.78,3.94,234183
SENSORS,2.95,2.85,2.77,3.88,1.66,1.76,1.79,3.94,234486
SENSORS,2.96,2.85,2.77,3.88,1.66,1.77,1.78,3.94,234750
SENSORS,2.95,2.85,2.77,3.87,1.65,1.76,1.78,3.94,235016
$GPGGA,145523.000,4127.1737,N,08418.1026,W,1,09,1.01,384.5,M,-34.000,A,4127.172,149
SENSORS,2.96,2.85,2.77,3.87,1.66,1.76,1.78,3.94,235566
SENSORS,2.95,2.85,2.77,3.87,1.66,1.75,1.77,3.94,235830
SENSORS,2.96,2.85,2.77,3.87,1.67,1.76,1.77,3.94,236095
SENSORS,2.96,2.85,2.77,3.87,1.66,1.77,1.78,3.94,236410
5,N,08418.1072,W,14.03,253.63,3`≈±bb•â™Hí®TG,⁄πöb¢ì¶&ßô99Z
ö4.000,A,4127.172,149
SENSORS,2.95,2.85,2.77,3.87,1.66,1.77,1.77,3.94,236930
SENSORS,2.95,2.85,2.77,3.87,1.66,1.77,1.78,3.94,237212
SENSORS,2.95,2.85,2.77,3.87,1.65,1.77,1.79,3.94,237546
SENSORS,2.96,2.85,2.77,3.87,1.66,1.76,1.79,3.94,237820
Èu*)¢™™í≤	9%&¶KLS	sL)	âÈ)	 bì¶&ibj‘Èâ•S5
$GPGSA,A,3,31,14,32,242,W,1,09,1.01,,149
SENSORS,2.97,2.85,2.77,3.87,1.66,1.76,1.80,3.94,238392
SENSORS,2.97,2.85,2.77,3.87,1.66,1.76,1.79,3.94,238657
SENSORS,2.96,2.85,2.77,3.87,1.66,1.76,1.79,3.94,238921
SENSORS,2.96,2.85,2.77,3.86,1.66,1.77,1.79,3.94,239249
405.4,M,-33.7,M,,*51
$GPGSA,A,X≈≈¢bíI&KLô03b«ƒ)…ì¶•ô3*d)A’242,W,1,09,1.01,,149
SENSORS,2.95,2.85,2.77,3.86,1.66,1.77,1.79,3.94,239771
SENSORS,2.96,2.85,2.77,3.86,1.65,1.77,1.79,3.94,240035
SENSORS,2.95,2.85,2.77,3.87,1.65,1.77,1.79,3.94,240347
SENSORS,2.96,2.85,2.77,3.86,1.66,1.76,1.79,3.94,240612
$GPGGA,145529.000,4127.1632,N,08418.1346,W,1,09,1.01,412.8,M,-3242,W,1,09,1.01,,149
SENSORS,2.95,2.85,2.77,3.86,1.66,1.77,1.79,3.94,241162
SENSORS,2.97,2.85,2.77,3.86,1.65,1.76,1.79,3.94,241433
SENSORS,2.97,2.85,2.77,3.86,1.66,1.76,1.79,3.94,241698
SENSORS,2.97,2.85,2.77,3.86,1.65,1.76,1.79,3.94,241963
ITT™öÇbí∫)Çbr±¬é)È≈ä\	âä∫©ä©¶ÊõM,,*56
A])iiäbä¢4$&,39,305,39,10,29,149
SENSORS,2.96,2.85,2.77,3.86,1.66,1.77,1.79,3.94,242537
SENSORS,2.97,2.85,2.77,3.86,1.65,1.76,1.79,3.94,242868
SENSORS,2.95,2.85,2.77,3.86,1.66,1.77,1.79,3.94,243142
SENSORS,2.88,2.85,2.77,3.86,1.66,1.76,1.79,3.94,243407
,156,40,01,22,282,37,03,17,317,f›’à
‘&&LÃ,d≈±Çö44ìNMôñ1,0cí4D32,25,10,01,22,03,19
SENSORS,2.96,2.85,2.77,3.85,1.67,1.77,1.79,3.94,243966
SENSORS,2.95,2.85,2.77,3.85,1.65,1.76,1.79,3.94,244232
SENSORS,2.96,2.85,2.77,3.85,1.66,1.76,1.79,3.94,244496
SENSORS,2.96,2.85,2.77,3.85,1.66,1.76,1.79,3.94,244818
2,,,,1.67,1.01,1.33*02
$GPRMC,h’ÕrÇÇ)âìì¶&KKúò8.hŸ]±äd$$i	Sî%32,25,10,01,22,03,19
SENSORS,2.95,2.85,2.77,3.85,1.66,1.75,1.79,3.94,245335
SENSORS,2.95,2.85,2.77,3.85,1.65,1.76,1.78,3.94,245622
SENSORS,2.95,2.85,2.77,3.85,1.66,1.77,1.78,3.94,245892
SENSORS,2.97,2.85,2.77,3.85,1.67,1.75,1.79,3.94,246157
:u
¢™™ö™rÇâ∫rä™í™…äSì¶ì”È)	'&&b¢¢d©ä”)âI© j
$GPGSA,A,3,31,132,25,10,01,22,03,19
SENSORS,2.96,2.85,2.77,3.85,1.66,1.77,1.78,3.94,246746
SENSORS,2.96,2.85,2.77,3.85,1.67,1.77,1.78,3.94,247026
SENSORS,2.96,2.85,2.77,3.84,1.67,1.77,1.78,3.94,247291
SENSORS,2.96,2.85,2.77,3.84,1.66,1.77,1.79,3.94,247591
A:≈™rÇâIì¶&Kõú41\Ÿíb≈	)ì&%MNö,MöÕ∫b≈âI!“T™ññ,3X—Õíbí™bäÇbbíb32,25,10,01,22,03,19
SENSORS,2.95,2.85,2.77,3.84,1.66,1.76,1.79,3.94,248108
SENSORS,2.95,2.85,2.77,3.84,1.67,1.76,1.79,3.94,248372
SENSORS,2.97,2.85,2.77,3.84,1.66,1.76,1.79,3.94,248699
SENSORS,2.96,2.85,2.77,3.84,1.66,1.76,1.79,3.94,248971
$GPGGA,145538.000,4127.1523,N,08418.1662,W,1,09,1.00,459.9,M,-332,25,10,01,22,03,19
SENSORS,2.96,2.85,2.77,3.84,1.65,1.76,1.79,3.94,249502
SENSORS,2.97,2.85,2.77,3.84,1.65,1.76,1.79,3.94,249774
SENSORS,2.95,2.85,2.77,3.84,1.66,1.76,1.79,3.94,250038
SENSORS,2.96,2.85,2.78,3.83,1.66,1.75,1.79,3.94,250303
tA±¢™ rÇb¢äír™¬»ä	'S¬r≤t≈S&	Çb¢≤™räbj±-33.7,M,,*57
$GPGSA,1552,N,08418.1739,W9
SENSORS,2.96,2.85,2.78,3.83,1.66,1.76,1.79,3.94,250849
SENSORS,2.96,2.85,2.78,3.84,1.66,1.77,1.79,3.94,251114
SENSORS,2.95,2.85,2.78,3.83,1.65,1.76,1.79,3.94,251378
SENSORS,2.96,2.85,2.78,3.83,1.65,1.77,1.78,3.94,251710
,13.38,286.99,310317,,,A*45
$†YQbírD≈©ä”&&Kñö80,±©≤j¸$GPGGA,141552,N,08418.1739,W9
SENSORS,2.95,2.85,2.78,3.83,1.66,1.76,1.78,3.94,252228
SENSORS,2.95,2.85,2.78,3.83,1.65,1.76,1.78,3.94,252550
SENSORS,2.95,2.85,2.78,3.83,1.66,1.77,1.78,3.94,252819
SENSORS,2.96,2.85,2.78,3.83,1.67,1.77,1.78,3.94,253084
“u*)©Sì&Çbír™¢br±¬¢¬öb∫±±Ç $	D¬Çr™bj©iìäI©"§à‘iböbíI™bä1552,N,08418.1739,W9
SENSORS,2.95,2.85,2.78,3.83,1.65,1.77,1.79,3.94,253665
SENSORS,2.96,2.85,2.78,3.82,1.65,1.76,1.79,3.94,253930
SENSORS,2.95,2.85,2.78,3.83,1.65,1.76,1.79,3.94,254194
SENSORS,2.96,2.85,2.78,3.82,1.65,1.76,1.79,3.94,254521
$GPGGA,1455f¡¡b¢∫)‰ä	SGLLññ9,1¡±¢¬r‘ä©”&•Sñö2
HAM≈≈lâ)&&Ãñ0,1552,N,08418.1739,W9
SENSORS,2.96,2.85,2.78,3.82,1.66,1.76,1.79,3.94,255038
SENSORS,2.95,2.85,2.78,3.82,1.66,1.76,1.79,3.94,255303
SENSORS,2.96,2.85,2.78,3.82,1.66,1.76,1.79,3.94,255616
SENSORS,2.96,2.85,2.78,3.82,1.66,1.76,1.79,3.94,255880
$GPGGA,145545.000,4127.1645,N,08418.1933,W,1,09,1.00,493.5,M,-31552,N,08418.1739,W9
SENSORS,2.96,2.85,2.78,3.82,1.66,1.76,1.79,3.94,256443
SENSORS,2.96,2.85,2.78,3.82,1.65,1.76,1.79,3.94,256766
SENSORS,2.95,2.85,2.79,3.82,1.65,1.76,1.79,3.94,257031
SENSORS,2.95,2.85,2.79,3.82,1.66,1.76,1.79,3.94,257308
:A:bä™™¢≤rÇbärä≤∫äbä	)) ≤≤b∫		Çb¢ ¬$©ä©¶&•äâI©S“™™KPii	)ìI™1552,N,08418.1739,W9
SENSORS,2.96,2.85,2.79,3.82,1.65,1.76,1.79,3.94,257828
SENSORS,2.96,2.85,2.79,3.82,1.65,1.76,1.78,3.94,258094
SENSORS,2.95,2.85,2.79,3.82,1.66,1.76,1.78,3.94,258408
SENSORS,2.96,2.85,2.79,3.82,1.66,1.76,1.78,3.94,258678
$GPGGA,145—πÇÇD∫äíbrÇ¢¬$íöb∫äb ,b™Ç∫r ©ä©¶&SK•T“T™KPôi&1552,N,08418.1739,W9
SENSORS,2.95,2.85,2.79,3.81,1.66,1.76,1.79,3.94,259190
SENSORS,2.96,2.85,2.79,3.81,1.66,1.75,1.79,3.94,259511
SENSORS,2.96,2.85,2.79,3.81,1.66,1.76,1.79,3.94,259777
SENSORS,2.95,2.85,2.79,3.81,1.66,1.76,1.79,3.94,260042
$GPGGA,145549.000,4127.1733,N,08418.2040,W,1,09,1.00,512.6,M,-33
$GPRMC,145550.009
SENSORS,2.95,2.85,2.79,3.81,1.65,1.76,1.79,3.94,260590
SENSORS,2.95,2.85,2.79,3.81,1.65,1.76,1.79,3.94,260855
SENSORS,2.96,2.85,2.79,3.81,1.66,1.76,1.79,3.94,261120
SENSORS,2.96,2.85,2.79,3.81,1.66,1.76,1.79,3.94,261450
0,A,4127.1757,N,08418.2050,W,9.nÕ—räbäƒâ)“!!®™,34‹’°±jî	â…ìì'K3
$GPRMC,145550.009
SENSORS,2.97,2.85,2.79,3.80,1.65,1.76,1.79,3.94,261965
SENSORS,2.97,2.85,2.80,3.81,1.66,1.76,1.79,3.94,262230
SENSORS,2.99,2.85,2.80,3.80,1.65,1.76,1.79,3.94,262495
SENSORS,2.97,2.85,2.80,3.81,1.66,1.77,1.79,3.94,262812
$GPGGA,145552.000,4127.1802,N,08418.2064,W,1,09,1.00,525.9,M,-33
$GPRMC,145550.009
SENSORS,2.85,2.85,2.80,3.80,1.65,1.76,1.79,3.94,263324
SENSORS,2.97,2.85,2.80,3.80,1.65,1.76,1.79,3.94,263652
SENSORS,2.97,2.85,2.80,3.80,1.65,1.76,1.79,3.94,263926
SENSORS,2.96,2.85,2.80,3.80,1.66,1.76,1.79,3.94,264192
“‘PLMMM&L0,4d\·17,N,ä¬I b∫±bÇbì©öÇD©ä©¶ÊõM,,*5A
A])iiäbä¢5554.000,4127.18.009
SENSORS,2.97,2.85,2.80,3.80,1.66,1.76,1.79,3.94,264776
SENSORS,2.96,2.85,2.80,3.80,1.66,1.76,1.79,3.94,265041
SENSORS,2.96,2.85,2.80,3.80,1.66,1.76,1.79,3.94,265306
SENSORS,2.97,2.85,2.80,3.80,1.66,1.76,1.79,3.94,265627
27,N,08418.2072,W,1,09,1.00,53\±±ööÈäRS!!TA,±±äbä4I&KLô03b«ƒ)5554.000,4127.18.009
SENSORS,2.98,2.85,2.80,3.80,1.66,1.76,1.79,3.94,266147
SENSORS,2.98,2.85,2.80,3.79,1.66,1.76,1.79,3.94,266415
SENSORS,2.98,2.85,2.80,3.80,1.66,1.76,1.79,3.94,266738
SENSORS,2.96,2.85,2.80,3.80,1.65,1.76,1.79,3.94,267005
ééÇ≈45556.`bä™br±08418.2059,W,1,09,1.00,544.0,M,-33.7,M,,*5C
5554.000,4127.18.009
SENSORS,2.98,2.85,2.80,3.79,1.65,1.76,1.79,3.94,267599
SENSORS,2.97,2.85,2.80,3.79,1.66,1.76,1.78,3.94,267865
SENSORS,2.98,2.85,2.80,3.79,1.65,1.76,1.79,3.94,268129
SENSORS,2.97,2.85,2.80,3.79,1.66,1.76,1.79,3.94,268431
::∫	9%LKLö6,X·ä$©&LN1`±¢¬4©ä”óñM,T	5DuµPPô,3±—öí$&KLô2,f≈5554.000,4127.18.009
