$GPGGA,145206.000,4127.1849,N,08417.9746,W,1,03,4.90,183.7,M,-3,2,14,32,31,,,,,,,,
$GPGGA,145208.000,4127.1852,N,08417.9749,W,1,03,4.90,183.7,M,-3,2,14,32,31,,,,,,,,
$GPGGA,145209.000,4127.1855,N,08417.9749,W,1,03,4.90,183.7,M,-3,2,14,32,31,,,,,,,,
$GPGGA,145214.000,4127.1833,N,08417.9735,W,1,03,4.91,183.7,M,-300*0C
$GPGGA,145221.000,4127.1839,N,08417.9752,W,1,03,4.91,183.7,M,͹3.7,M,,*5A
$GPGGA,145224.000,4127.1832,N,08417.9750,W,1,03,4.91,183.7,M,-33.7,M,,*5A
$GPGGA,145226.000,4127.1878,N,08417.9653,W,1,06,1.94,228.3,M,-310,31,156,29,01,22,5
$GPGGA,145228.000,4127.1883,N,08417.9658,W,1,06,1.94,228.2,M,-3,,,,,2.15,1.94,0.92*
$GPGGA,145234.000,4127.1887,N,08417.9660,W,1,07,1.83,229.0,M,-3,,,,,2.15,1.94,0.92*
$GPGGA,145238.000,4127.1887,N,08417.9660,W,1,07,1.83,229.0,M,-3,-33.7,M,,*51
$GPGGA,145241.000,4127.1887,N,08417.9660,W,1,07,1.83,229.0,M,-3,-33.7,M,,*51
$GPGGA,145245.000,4127.1887,N,08417.9660,W,1,07,2.51,229.0,M,-31,12,,,,,,2.05,1.83,
$GPGGA,145248.000,4127.1887,N,08417.9660,W,1,07,1.83,229.0,M,-3SA,A,3,25,01,14,32,,
$GPGGA,145251.000,4127.1887,N,08417.9660,W,1,07,1.83,229.0,M,-3SA,A,3,25,01,14,32,,
$GPGGA,145254.000,4127.1887,N,08417.9660,W,1,07,1.83,229.0,M,-3SA,A,3,25,01,14,32,,
$GPGGA,145301.000,4127.1887,N,08417.9660,W,1,09,0.99,229.0,M,-31.61,229.0,M,-33.7,,
$GPGGA,145305.000,4127.1884,N,08417.9659,W,1,09,1.02,228.5,M,-3,0.99,228.5,M,-33.7,
$GPGGA,145311.000,4127.1883,N,08417.9659,W,1,09,0.99,228.5,M,-33,N,08417.9659,W,1,,
$GPGGA,145315.000,4127.1883,N,08417.9659,W,1,09,1.02,228.5,M,-322,31,10,12,03,,,,1,
$GPGGA,145318.000,4127.1883,N,08417.9659,W,1,09,1.02,228.4,M,-37,M,,*52
$GPGGA,145324.000,4127.1883,N,08417.9659,W,1,09,1.02,228.4,M,-37,M,,*52
$GPGGA,145328.000,4127.1883,N,08417.9659,W,6,01,99.99,228.4,M,-,,,,,,,99.99,99.99,9
$GPGGA,145400.000,4127.1876,N,08417.9754,W,1,08,1.06,213.5,M,-3,3,2,10,22,38,305,,9
$GPGGA,145404.000,4127.1865,N,08417.9720,W,1,09,1.01,219.6,M,-33,31,14,32,25,10,019
$GPGGA,145410.000,4127.1862,N,08417.9719,W,1,09,1.01,219.8,M,-33,31,14,32,25,10,019
$GPGGA,145418.000,4127.1862,N,08417.9718,W,1,09,1.01,219.8,M,-3,264,*4B
$GPGGA,145419.000,4127.1862,N,08417.9718,W,1,09,1.01,219.8,M,-32.99,310317,,,A*,149
$GPGGA,145425.000,4127.1862,N,08417.9718,W,1,09,1.01,219.9,M,-32.99,310317,,,A*,149
$GPGGA,145432.000,4127.1861,N,08417.9719,W,1,09,0.99,219.9,M,-35430.000,4127.18,149
$GPGGA,145435.000,4127.1858,N,08417.9718,W,1,09,0.99,219.9,M,-35430.000,4127.18,149
$GPGGA,145436.000,4127.1857,N,08417.9720,W,1,09,0.99,219.9,M,-3.99,0.80*0F
$GPGGA,145442.000,4127.1849,N,08417.9729,W,1,09,0.99,220.2,M,-3.99,0.80*0F
$GPGGA,145445.000,4127.1847,N,08417.9728,W,1,09,0.99,220.5,M,-3,N,0.08,K,A*31
$GPGGA,145449.000,4127.1867,N,08417.9738,W,1,09,0.99,222.1,M,-3,N,0.08,K,A*31
$GPGGA,145450.000,4127.1872,N,08417.9766,W,1,09,1.01,223.5,M,-32,58,075,41,25,4,149
$GPGGA,145453.000,4127.1777,N,08417.9900,W,1,09,1.01,235.3525,10,01,22,03,1,149
$GPGGA,145459.000,4127.1753,N,08418.0028,W,1,09,1.01,266.0,M,-3,09,1.01,256.2,M,149
$GPGGA,145509.000,4127.1793,N,08418.0361,W,1,09,1.01,316.1,M,-3*05
$GPGGA,145513.000,4127.1794,N,08418.0530,W,1,09,1.01,335.5,M,-327.1798,N,08418.,149
$GPGGA,145519.000,4127.1782,N,08418.0826,W,1,09,0.98,360.7,M,-39,1.01,350.4,M,-,149
$GPGGA,145523.000,4127.1737,N,08418.1026,W,1,09,1.01,384.5,M,-34.000,A,4127.172,149
$GPGGA,145529.000,4127.1632,N,08418.1346,W,1,09,1.01,412.8,M,-3242,W,1,09,1.01,,149
$GPGGA,145538.000,4127.1523,N,08418.1662,W,1,09,1.00,459.9,M,-332,25,10,01,22,03,19
$GPGGA,145545.000,4127.1645,N,08418.1933,W,1,09,1.00,493.5,M,-31552,N,08418.1739,W9
$GPGGA,145549.000,4127.1733,N,08418.2040,W,1,09,1.00,512.6,M,-33
$GPGGA,145552.000,4127.1802,N,08418.2064,W,1,09,1.00,525.9,M,-33
$GPGGA,145559.000,4127.1872,N,08418.2031,W,1,09,0.98,556.7,M,-35554.000,4127.18.009
$GPGGA,145603.000,4127.1928,N,08418.1970,W,1,09,1.00,572.9,M,-304.000,A,4127.19.009
$GPGGA,145609.000,4127.2093,N,08418.1908,W,1,09,1.00,598.4,M,-300,4127.2035,N,0.009
$GPGGA,145613.000,4127.2218,N,08418.1856,W,1,09,1.00,614.6,M,-314,32,25,10,01,2.009
$GPGGA,145619.000,4127.2407,N,08418.1757,W,1,09,1.00,639.8,M,-300,632.1,M,-33.7.009
$GPGGA,145622.000,4127.2498,N,08418.1669,W,1,09,1.1,T,,M,13.08,N,2.009
$GPGGA,145626.000,4127.2582,N,08418.1528,W,1,09,1.00,674.0,M,-3GA,145627.000,41.009
$GPGGA,145629.000,4127.2629,N,08418.1446,W,1,09,1.00,691.4,M,-3GA,145627.000,41.009
$GPGGA,145633.000,4127.2705,N,08418.1360,W,1,09,1.00,714.6,M,-3,A,4127.2734,N,0.009
$GPGGA,145636.000,4127.2786,N,08418.1297,W,1,09,1.00,731.7,M,-3,A,4127.2734,N,0.009
$GPGGA,145639.000,4127.2874,N,08418.1240,W,1,09,1.00,744.8,M,-3,A,4127.2734,N,0.009
$GPGGA,145643.000,4127.2994,N,08418.1157,W,1,09,1.00,759.0,M,-32,25,10,01,22,12.009
$GPGGA,145649.000,4127.3119,N,08418.1081,W,1,09,1.00,789.5,M,-3000,4127.3089,N,.009
$GPGGA,145651.000,4127.3146,N,08418.1054,W,1,09,1.00,801.4,M,-3000,4127.3089,N,.009
$GPGGA,145655.000,4127.3191,N,08418.0954,W,1,09,1.00,825.9,M,-31,09,1.00,813.9,M,-9
$GPGGA,145658.000,4127.3231,N,08418.0852,W,1,09,1.00,ѹbiI1,09,1.00,813.9,M,-9
$GPGGA,145659.000,4127.3246,N,08418.0823,W,1,09,1.00,848.9,M,-3*03
$GPGGA,145705.000,4127.3232,N,08418.0714,W,1,09,1.00,880.6,M,-3*03
$GPGGA,145708.000,4127.3222,N,08418.0666,W,1,09,1.00,898.0,M,-3*03
$GPGGA,145716.000,4127.3195,N,08418.0618,W,1,09,1.00,943.7,M,-316,N,08418.0632,00.9
$GPGGA,145719.000,4127.3174,N,08418.0557,W,1,09,1.00,959.0,M,-316,N,08418.0632,00.9
$GPGGA,145726.000,4127.3229,N,08418.0399,W,1,09,1.00,992.7,M,-307,N,08418.0420,00.9
$GPGGA,145729.000,4127.3248,N,08418.0398,W,1,09,1.00,1010.3,M,-07,N,08418.0420,00.9
$GPGGA,145730.000,4127.3255,N,08418.0394,W,1,09,1.00,10165n07,N,08418.0420,00.9
$GPGGA,145736.000,4127.3248,N,08418.0321,W,1,09,1.00,1054.2,M,-07,N,08418.0420,00.9
$GPGGA,145739.000,4127.3259,N,08418.0263,W,1,09,1.00,1073.0,M,-*0B
$GPGGA,145746.000,4127.3300,N,08418.0147,W,1,09,1.00,1116.3,M,-44.000,4127.329900.9
$GPGGA,145749.000,4127.3277,N,08418.0093,W,1,09,1.00,1131.3,M,-44.000,4127.329900.9
$GPGGA,145757.000,4127.3295,N,08418.0112,W,1,09,0.99,1170.5,M,-,M,,*66
$GPGGA,145810.000,4127.3420,N,08417.9929,W,1,09,0.98,1231.7,M,-6.58,67.84,3103100.9
$GPGGA,145814.000,4127.3439,N,08417.9939,W,1,09,0.98,1251.0,M,-31,14,32,25,10,000.9
$GPGGA,145820.000,4127.3545,N,08417.9867,W,1,09,0.99,1278.8,M,-31,14,32,25,10,000.9
$GPGGA,145827.000,4127.3571,N,08417.9703,W,1,09,0.99,1318.5,M,-10.26,K,A*38
$GPGGA,145834.000,4127.3651,N,08417.9581,W,1,09,0.99,1361.0,M,-24,W,1,09,0.99,100.9
$GPGGA,145837.000,4127.3670,N,08417.9473,W,1,09,0.99,1376.7,M,-24,W,1,09,0.99,100.9
$GPGGA,145848.000,4127.3734,N,08417.9091,W,1,09,0.99,1426.5,M,-27.3749,N,08417.00.9
$GPGGA,145858.000,4127.3919,N,08417.8890,W,1,09,0.99,1467.9,M,-4,0.99,1.30*02
$GPGGA,145901.000,4127.3973,N,08417.8830,W,1,09,0.99,1480.4,M,-4,0.99,1.30*02
$GPGGA,145905.000,4127.4037,N,08417.8762,W,1,09,0.99,1499.9,M,-,31,14,32,25,10,00.9
$GPGGA,145908.000,4127.4082,N,08417.8658,W,1,09,0.99,1516.8,M,-27.4099,N,08417.00.9
$GPGGA,145911.000,4127.4121,N,08417.8582,W,1,09,0.99,1535.0,M,-27.4099,N,08417.00.9
$GPGGA,145914.000,4127.4137,N,08417.8442,W,1,09,0.99,1548.7,M,-27.4099,N,08417.00.9
$GPGGA,145918.000,4127.4135,N,08417.8302,W,1,09,0.99,1562.8,M,-0*05
$GPGGA,145921.000,4127.4129,N,08417.8214,W,1,09,0.99,1576.1,M,-0*05
$GPGGA,145924.000,4127.4122,N,08417.8188,W,2,09,0.97,1588.9,M,-0*05
$GPGGA,145928.000,4127.4131,N,08417.8155,W,2,09,0.97,1602.9,M,-,25,10,01,22,03,00.9
$GPGGA,145938.000,4127.4250,N,08417.8060,W,2,09,0.99,1648.8,M,-7.4268,N,08417.800.9
$GPGGA,145948.000,4127.4273,N,08417.7733,W,2,09,0.99,1696.5,M,-,12,,,,1.63,0.9900.9
$GPGGA,145958.000,4127.4310,N,08417.7330,W,2,09,0.99,1737.7,M,-.7287,W,11.49,7800.9
$GPGGA,150004.000,4127.4314,N,08417.7117,W,2,09,0.99,1763.7,M,-09,0.99,1754.2,M00.9
$GPGGA,150008.000,4127.4318,N,08417.7079,W,2,09,0.97,1781.3,M,-2,,,,1.25,0.97,000.9
$GPGGA,150018.000,4127.4505,N,08417.6833,W,2,09,0.98,1831.3,M,-*0C
$GPGGA,150024.000,4127.4581,N,08417.6669,W,2,09,0.98,1868.6,M,-4556,N,08417.67100.9
$GPGGA,150028.000,4127.4675,N,08417.6641,W,2,09,0.98,1892.2,M,-2,,,,1.62,0.98,100.9
$GPGGA,150038.000,4127.4980,N,08417.6406,W,2,09,0.98,1942.8,M,-,A,3,31,14,32,2500.9
$GPGGA,150044.000,4127.5129,N,08417.6396,W,2,09,0.98,1970.8,M,-0.98,1960.9,M,-300.9
$GPGGA,150048.000,4127.5171,N,08417.6337,W,2,09,0.98,1990.1,M,-GSA,A,3,31,14,3200.9
$GPGGA,150054.000,4127.5303,N,08417.6140,W,2,09,0.98,2016.2,M,-,4127.5249,N,08200.9
$GPGGA,150058.000,4127.5438,N,08417.6046,W,2,09,0.98,2034.7,M,-2,W,9.77,19.30,300.9
$GPGGA,150101.000,4127.5514,N,08417.6017,W,2,09,0.98,2052.3,M,-2,W,9.77,19.30,300.9
$GPGGA,150104.000,4127.5570,N,08417.5982,W,2,09,0.98,2071.2,M,-2,W,9.77,19.30,300.9
$GPGGA,150108.000,4127.5635,N,08417.5871,W,2,09,0.98,2092.1,M,-,A,3,31,14,32,2500.9
$GPGGA,150114.000,4127.5838,N,08417.5725,W,2,09,0.98,2120.9,M,-,A,3,31,14,32,2500.9
$GPGGA,150118.000,4127.5931,N,08417.5697,W,2,09,0.98,2144.2,M,-,A,3,31,14,32,2500.9
$GPGGA,150134.000,4127.6344,N,08417.5527,W,2,09,0.98,2232.0,M,-292,N,08417.553800.9
$GPGGA,150159.000,4127.7210,N,08417.5391,W,2,10,0.83,2361.1,M,-D*34
$GPGGA,150206.000,4127.7493,N,08417.5318,W,2,10,0.83,2391.4,M,-201.000,4127.7299,N9
$GPGGA,150209.000,4127.7559,N,08417.5261,W,2,rbbj͚rb			201.000,4127.7299,N9
$GPGGA,150210.000,4127.7576,N,08417.5251,W,2,10,0.83,2411.1,M,-*0C
$GPGGA,150213.000,4127.7635,N,08417.5250,W,2,10,0.83,2427.6,M,-5,10,01,22,26,03,129
$GPGGA,150216.000,4127.7713,N,08417.5244,W,2,10,0.83,2445.9,M,-5,10,01,22,26,03,129
$GPGGA,150220.000,4127.7853,N,08417.5204,W,2,10,0.83,2469.5,M,-5,10,01,22,26,03,129
$GPGGA,150230.000,4127.8009,N,08417.5156,W,2,10,0.83,2524.2,M,-8417.5158,W,2,10,129
$GPGGA,150234.000,4127.8120,N,08417.5261,W,2,10,0.83,2540.2,M,-7.5261,W,2,10,0.,129
$GPGGA,150254.000,4127.8702,N,08417.5318,W,2,10,0.83,2627.4,M,-03,12,,,1.46,0.8,129
$GPGGA,150307.000,4127.8868,N,08417.5555,W,2,10,0.83,2697.3,M,-1.34,K,D*05
$GPGGA,150318.000,4127.9049,N,08417.5653,W,2,10,0.83,2749.7,M,-127.9055,N,08417,129
$GPGGA,150324.000,4127.9142,N,08417.5742,W,2,10,0.83,2784.3,M,-127.9055,N,08417,129
$GPGGA,150334.000,4127.9295,N,08417.5791,W,2,10,0.83,2840.9,M,-,-33.7,M,0000,00,129
$GPGGA,150338.000,4127.9360,N,08417.5882,W,2,10,0.83,2860.4,M,-3,1.20*0C
$GPGGA,150344.000,4127.9552,N,08417.5950,W,2,10,0.83,2890.3,M,-3,1.20*0C
$GPGGA,150348.000,4127.9663,N,08417.5918,W,2,10,0.83,2909.4,M,-2,N,08417.5907,W,129
$GPGGA,150407.000,4128.0046,N,08417.5959,W,2,10,0.83,3013.8,M,-F
$GPGGA,150410.000,4128.0081,N,08417.5964,W,2,10,0.83,30,,M,5.12,N,9.49,,129
$GPGGA,150421.000,4128.0394,N,08417.5838,W,2,10,0.83,3072.9,M,-000,4128.0428,N,,129
$GPGGA,150424.000,4128.0493,N,08417.5818,W,2,10,0.83,3087.3,M,-000,4128.0428,N,,129
$GPGGA,150428.000,4128.0604,N,08417.5755,W,2,10,0.83,3104.4,M,-0622,N,08417.574,129
$GPGGA,150434.000,4128.0704,N,08417.5748,W,2,10,0.83,3133.2,M,-0622,N,08417.574,129
$GPGGA,150438.000,4128.0748,N,08417.5779,W,2,10,0.83,3153.4,M,-31,14,32,25,10,0,129
$GPGGA,150441.000,4128.0775,N,08417.5821,W,2,10,0.83,3164.6,M,-31,14,32,25,10,0,129
$GPGGA,150444.000,4128.0827,N,08417.5889,W,2,10,0.83,3178.0,M,-31,14,32,25,10,0,129
$GPGGA,150448.000,4128.0938,N,08417.5981,W,2,10,0.83,3198.3,M,-
$GPGGA,150454.000,4128.1159,N,08417.6026,W,2,10,0.83,3226.2,M,-
$GPGGA,150518.000,4128.1770,N,08417.6250,W,2,10,0.83,3361.0,M,-,12,,,1.46,0.83,,129
$GPGGA,150524.000,4128.1898,N,08417.6382,W,2,10,0.83,3394.3,M,-83,3383.1,M,-33.,129
$GPGGA,150534.000,4128.2044,N,08417.6583,W,2,10,0.83,3443.7,M,-A,4128.2008,N,08,129
$GPGGA,150541.000,4128.2101,N,08417.b$)L&'f&	&6717,W,2,10,0.83,129
$GPGGA,150548.000,4128.2175,N,08417.6705,W,2,10,0.83,3502.1,M,-,,,1.45,0.83,1.1,129
$GPGGA,150554.000,4128.2210,N,08417.6714,W,2,10,0.83,3524.1,M,-8.2193,N,08417.6,129
$GPGGA,150558.000,4128.2251,N,08417.6704,W,2,10,0.83,3539.2,M,-3,12,,,1.45,0.83,129
$GPGGA,150601.000,4128.2289,N,08417.6679,W,2,10,0.83,3552.4,M,-GGA,150602.000,4,129
$GPGGA,150604.000,4128.2321,N,08417.6654,W,2,10,0.83,3564.8,M,-GGA,150602.000,4,129
$GPGGA,150608.000,4128.2373,N,08417.6608,W,2,10,0.83,3580.2,M,-14,32,25,10,01,2,129
$GPGGA,150618.000,4128.2639,N,08417.6573,W,2,10,0.83,3634.4,M,-,1.45,0.83,1.19*,129
$GPGGA,150624.000,4128.2758,N,08417.6566,W,2,10,0.83,3674.9,M,-.6581,W,2,10,0.8,129
$GPGGA,150627.000,4128.2856,N,08417.6547,W,2,10,0.83,3693.6,M,-.6581,W,2,10,0.8,129
$GPGGA,150634.000,4128.3111,N,08417.6688,W,2,10,0.83,3727.8,M,-3035,N,08417.664,129
$GPGGA,150638.000,4128.3255,N,08417.6716,W,2,10,0.83,3748.1,M,-17.6703,W,10.09,,129
$GPGGA,150648.000,4128.3447,N,08417.6793,W,2,10,0.83,3802.8,M,-,03,12,,,1.45,0.,129
$GPGGA,150651.000,4128.3531,N,08417.6851,W,2,10,0.83,3816.0,M,-,03,12,,,1.45,0.,129
$GPGGA,150654.000,4128.3631,N,08417.6882,W,2,10,0.83,3830.4,M,-,03,12,,,1.45,0.,129
$GPGGA,150704.000,4128.3859,N,08417.6756,W,2,10,0.83,3878.1,M,-,22,26,03,12,,,1,129
$GPGGA,150708.000,4128.3919,N,08417.6763,W,2,10,0.83,3902.5,M,-.000,A,4128.3943,129
$GPGGA,150724.000,4128.4252,N,08417.6619,W,2,10,0.83,3992.8,M,-8417.6638,W,2,10,129
$GPGGA,150728.000,4128.4355,N,08417.6619,W,2,10,0.83,4019.6,M,-5
$GPGGA,150731.000,4128.4382,N,08417.6623,W,2,10,0.83,4038.3,M,-5
$GPGGA,150734.000,4128.4459,N,08417.6561,W,2,10,0.83,40575n5
$GPGGA,150738.000,4128.4589,N,08417.6549,W,2,10,0.83,4081.7,M,-GSA,A,3,31,14,32,129
$GPGGA,150741.000,4128.4712,N,08417.6592,W,2,10,0.83,4094.3,M,-GSA,A,3,31,14,32,129
$GPGGA,150744.000,4128.4826,N,08417.6604,W,2,10,0.83,4107.9,M,-GSA,A,3,31,14,32,129
$GPGGA,150748.000,4128.4972,N,08417.6563,W,2,10,0.83,4128.9,M,-GPGSA,A,3,31,14,,129
$GPGGA,150758.000,4128.5214,N,08417.6560,W,2,10,0.83,4189.4,M,-PRMC,150759.000,,129
$GPGGA,150801.000,4128.5321,N,08417.6526,W,2,10,0.83,4208.2,M,-PRMC,150759.000,,129
$GPGGA,150804.000,4128.5434,N,08417.6456,W,2,10,0.83,4223.8,M,-PRMC,150759.000,,129
$GPGGA,150808.000,4128.5614,N,08417.6419,W,2,10,0.83,4240.8,M,-A,4128.5657,N,08,129
$GPGGA,150814.000,4128.5867,N,08417.6422,W,2,10,0.83,4269.8,M,-3,4259.9,M,-33.7,129
$GPGGA,150818.000,4128.6051,N,08417.6401,W,2,10,0.83,4285.8,M,-4,32,25,10,01,22,129
$GPGGA,150828.000,4128.6486,N,08417.6375,W,2,10,0.83,4331.1,M,-8,310317,,,D*75
$GPGGA,150834.000,4128.6651,N,08417.6268,W,2,10,0.83,4358.1,M,-8,310317,,,D*75
$GPGGA,150838.000,4128.6718,N,08417.6262,W,2,10,0.83,4375.3,M,-41,341.63,310317,129
$GPGGA,150848.000,4128.7038,N,08417.6248,W,2,10,0.83,4431.9,M,-19*05
$GPGGA,150904.000,4128.7454,N,08417.5953,W,2,10,0.83,4504.8,M,-.7261,N,08417.60,129
$GPGGA,150907.000,4128.7573,N,08417.5908,W,2,10,0.83,4515.2,M,-.7261,N,08417.60,129
$GPGGA,150927.000,4128.8072,N,08417.5612,W,2,10,0.83,4618.6,M,-7967,N,08417.559,129
$GPGGA,150930.000,4128.8174,N,08417.5600,W,2,10,0.83,4631.3,M,-,D*3D
$GPGGA,150937.000,4128.8376,N,08417.5548,W,2,10,0.83,4661.3,M,-A,3,31,14,32,25,,129
$GPGGA,150940.000,4128.8412,N,08417.5512,W,2,10,0.83,4677.7,M,-A,3,31,14,32,25,,129
$GPGGA,150941.000,4128.8418,N,08417.5519,W,2,10,0.83,4682.7,M,-9,W,3.74,321.61,,129
$GPGGA,150947.000,4128.8424,N,08417.5563,W,2,10,0.83,4711.4,M,-702.5,M,-33.7,M,0129
$GPGGA,150950.000,4128.8418,N,08417.5618,W,2,10,0.83,4726.5,M,-702.5,M,-33.7,M,0129
$GPGGA,150951.000,4128.8422,N,08417.5632,W,2,10,0.83,4731.0,M,-VTG,285.83,T,,M,0129
$GPGGA,151001.000,4128.8411,N,08417.5822,W,2,10,0.83,4ݹbi&KS5,10,01,22,26,03,129
$GPGGA,151008.000,4128.8361,N,08417.5801,W,2,10,0.83,4814.2,M,-8417.5790,W,4.88,129
$GPGGA,151014.000,4128.8394,N,08417.5831,W,2,10,0.83,4851.3,M,-51012.000,4128.8,129
$GPGGA,151024.000,4128.8362,N,08417.5657,W,2,10,0.83,4900.7,M,-,0000,0000*6A
$GPGGA,151028.000,4128.8398,N,08417.5663,W,2,10,0.83,4922.5,M,-1,22,26,03,12,,,,129
$GPGGA,151040.000,4128.8408,N,08417.5544,W,2,10,0.83,4993.6,M,-C
$GPGGA,151044.000,4128.8430,N,08417.5443,W,2,10,0.83,5015.8,M,-$GPGSA,A,3,31,14,129
$GPGGA,151048.000,4128.8501,N,08417.5401,W,2,10,0.83,5040.8,M,-128.8522,N,08417,129
$GPGGA,151054.000,4128.8651,N,08417.5418,W,2,10,0.83,5071.9,M,-01,22,26,03,12,,,129
$GPGGA,151107.000,4128.8847,N,08417.5291,W,2,10,0.83,5155.2,M,-,D*32
$GPGGA,151111.000,4128.8900,N,08417.5323,W,2ű	S'&i&KS	,14,32,25,10,22,,129
$GPGGA,151117.000,4128.9014,N,08417.5228,W,2,10,0.83,5216.8,M,-28.8994,N,08417.,129
$GPGGA,151127.000,4128.9119,N,08417.5039,W,2,10,0.83,5261.9,M,-,N,23.19,K,D*0A
$GPGGA,151131.000,4128.9218,N,08417.5036,W,2,10,0.83,5280.3,M,-0,A,4128.9242,N,
$GPGGA,151140.000,4128.9403,N,08417.4894,W,2,10,0.83,5321.0,M,-,4128.9331,N,084
$GPGGA,151144.000,4128.9395,N,08417.4783,W,2,10,0.83,5337.1,M,-,22,26,03,12,01,
$GPGGA,151150.000,4128.9391,N,08417.4610,W,2,10,0.83,5358.3,M,-677,W,2,10,0.83,
$GPGGA,151154.000,4128.9412,N,08417.4472,W,2,10,0.83,5372.2,M,-128.9419,N,08417
$GPGGA,151200.000,4128.9491,N,08417.4284,W,2,10,0.83,5391.9,M,-.000,4128.9456,N,129
$GPGGA,151209.000,4128.9706,N,08417.4213,W,2,10,0.83,5426.9,M,-0,0.83,5407.7,M,-339
$GPGGA,151213.000,4128.9804,N,08417.4193,W,2,10,0.83,5443.1,M,-1.17*0D
$GPGGA,151223.000,4129.0022,N,08417.4145,W,2,10,0.83,5486.5,M,-0005,N,08417.4138,W9
$GPGGA,151227.000,4129.0036,N,08417.4146,W,2,10,0.83,5bjj)	0,22,26,03,12,018,W9
$GPGGA,151233.000,4129.0146,N,08417.4110,W,2,10,0.83,5531.1,M,-0,22,26,03,12,018,W9
$GPGGA,151234.000,4129.0169,N,08417.4086,W,2,10,0.83,5536.8,M,-0187,N,08417.4068,W9
$GPGGA,151237.000,4129.0205,N,08417.4008,W,b	MMM,-33n508417.3985,W,2,18,W9
$GPGGA,151244.000,4129.0272,N,08417.3961,W,2,10,0.83,5595.5,M,-,,,1.43,0.83,1.18,W9
$GPGGA,151251.000,4129.0471,N,08417.3768,W,2ű	NLSi&KSL		252.000,A,4129.08,W9
$GPGGA,151304.000,4129.0798,N,08417.3157,W,2,10,0.83,5678.6,M,-14,32,25,10,22,28,W9
$GPGGA,151324.000,4129.1383,N,08417.2636,W,2,10,0.83,5752.1,M,-$GPGGA,15117,,,D8,W9
$GPGGA,151328.000,4129.1420,N,08417.2529,W,2,10,0.83,5771.2,M,-329.000,A,4129.18,W9
$GPGGA,151334.000,4129.1519,N,08417.2246,W,2,10,0.83,5804.2,M,-25,10,22,26,03,18,W9
$GPGGA,151347.000,4129.1840,N,08417.1963,W,2,10,0.83,5870.0,M,-,M,-33.7,M,0000,8,W9
$GPGGA,151350.000,4129.1926,N,08417.1930,W,2G,15.72,T,,M,11.8,W9
$GPGGA,151354.000,4129.2061,N,08417.1849,W,2,10,0.82,5903.4,M,-.1896,W,2,10,0.88,W9
$GPGGA,151358.000,4129.2217,N,08417.1663,W,2,10,0.82,5923.1,M,-7.61,310317,,,D*8,W9
$GPGGA,151404.000,4129.2469,N,08417.1370,W,2,10,0.82,5950.1,M,-,N,08417.1468,W,8,W9
$GPGGA,151414.000,4129.2873,N,08417.0864,W,2,10,0.82,6001.8,M,-7,M,0000,0000*668,W9
$GPGGA,151418.000,4129.3069,N,08417.0736,W,2,10,0.82,6023.0,M,-A,4129.3117,N,088,W9
$GPGGA,151424.000,4129.3361,N,08417.0470,W,2,10,0.82,6049.4,M,-A,4129.3117,N,088,W9
$GPGGA,151434.000,4129.3738,N,08417.0239,W,2,10,0.82,6094.0,M,-74
$GPGGA,151444.000,4129.4093,N,08416.9818,W,2,10,0.82,6145.5,M,-14,32,25,10,01,28,W9
$GPGGA,151448.000,4129.4224,N,08416.9580,W,2,10,0.82,6164.3,M,-,22,26,03,12,,,18,W9
$GPGGA,151500.000,4129.4638,N,08416.9144,W,2,10,0.82,6238.5,M,-9,K,D*0E
$GPGGA,151504.000,4129.4713,N,08416.8969,W,2,10,0.82,6265.1,M,-.42,0.82,1.16*0C8,W9
$GPGGA,151514.000,4129.5139,N,08416.8553,W,2,10,0.82,6308.8,M,-$GPGSA,A,3,31,148,W9
$GPGGA,151521.000,4129.5441,N,08416.8336,W,2,10,0.82,6330.8,M,-,31,14,32,25,10,8,W9
$GPGGA,151524.000,4129.5561,N,08416.8262,W,2,10,0.82,6342.5,M,-,31,14,32,25,10,8,W9
$GPGGA,151528.000,4129.5668,N,08416.8145,W,2,10,0.82,6361.0,M,-N,08416.8123,W,88,W9
$GPGGA,151531.000,4129.5728,N,08416.8080,W,2,10,0.82,6371.7,M,-N,08416.8123,W,88,W9
$GPGGA,151534.000,4129.5790,N,08416.7981,W,2,10,0.82,6382.5,M,-N,08416.8123,W,88,W9
$GPGGA,151538.000,4129.5910,N,08416.7901,W,2,10,0.82,6401.4,M,-6.7872,W,17.84,28,W9
$GPGGA,151544.000,4129.6189,N,08416.7673,W,2,10,0.82,6430.1,M,-12,,,1.42,0.82,18,W9
$GPGGA,151558.000,4129.6708,N,08416.6879,W,2,10,0.82,6486.7,M,-82,1.15*0F
$GPGGA,151604.000,4129.6857,N,08416.6689,W,2,10,0.82,6516.9,M,-,0000*65
$GPGGA,151608.000,4129.7027,N,08416.6579,W,2,10,rbiin驊&&%2,25,10,01,22,268,W9
$GPGGA,151611.000,4129.7163,N,08416.6436,W,2,10,0.82,6556.6,M,-2,25,10,01,22,268,W9
$GPGGA,151614.000,4129.7299,N,08416.6260,W,2,10,0.82,6567.9,M,-2,25,10,01,22,268,W9
$GPGGA,151618.000,4129.7495,N,08416.6081,W,2,10,0.82,6585.5,M,-32,25,10,01,22,28,W9
$GPGGA,151628.000,4129.7923,N,08416.5879,W,2,10,0.82,6627.2,M,-,12,,,1.42,0.82,8,W9
$GPGGA,151634.000,4129.8098,N,08416.5732,W,2,10,0.82,6652.8,M,-632.000,4129.8058,W9
$GPGGA,151637.000,4129.8169,N,08416.5634,W,2,10,0.82,6663.9,M,-,D*00
$GPGGA,151648.000,4129.8461,N,08416.5159,W,2,10,0.82,6711.0,M,-,10,01,22,26,03,8,W9
$GPGGA,151700.000,4129.9029,N,08416.4562,W,2,10,0.82T,,M,17.21,N,31.8,W9
$GPGGA,151708.000,4129.9327,N,08416.4116,W,2,10,0.82,6818.0,M,-416.4051,W,26.428,W9
$GPGGA,151714.000,4129.9647,N,08416.3799,W,2,10,0.82,6848.4,M,-$GPGSA,A,3,31,148,W9
$GPGGA,151738.000,4130.0794,N,08416.2599,W,2,10,0.82,7004.7,M,-560,W,17.77,38.58,W9
$GPGGA,151741.000,4130.0912,N,08416.2486,W,2,10,0.82,7024.1,M,-$GPGGA,1.77,38.58,W9
$GPGGA,151744.000,4130.1031,N,08416.2437,W,2,10,0.82,7037.3,M,-$GPGGA,1.77,38.58,W9
$GPGGA,151748.000,4130.1216,N,08416.2307,W,2,10,0.82,7059.8,M,-.82,1.15*0C
$GPGGA,151757.000,4130.1567,N,08416.2035,W,2,10,0.7,T,,M,14.35,N,28,W9
$GPGGA,151814.000,4130.2449,N,08416.1142,W,2,10,0.82,7188.2,M,-4,32,25,10,01,228,W9
$GPGGA,151818.000,4130.2743,N,08416.0998,W,2,10,0.82,7204.6,M,-*77
$GPGGA,151824.000,4130.3167,N,08416.0751,W,2,10,0.82,7239.7,M,-2,N,08416.0847,W8,W9
$GPGGA,151828.000,4130.3407,N,08416.0547,W,2,10,0.82,7265.9,M,-,3,31,14,32,25,18,W9
$GPGGA,151840.000,4130.4206,N,08416.0401,W,2,G,7.13,T,,M,24.18,W9
$GPGGA,151900.000,4130.5289,N,08416.0128,W,2,09,1.04,7408.3,M,-,K,D*0C
$GPGGA,151901.000,4130.5342,N,08416.0101,W,2,09,1.04,7412.75n2,26,03,,,,1.97,8,W9
$GPGGA,151914.000,4130.6141,N,08415.9769,W,2,09,1.04,7482.0,M,-30.5997,N,08415.8,W9
$GPGGA,151918.000,4130.6482,N,08415.9698,W,2,09,1.04,7505.0,M,-0,A,4130.6570,N,8,W9
$GPGGA,151924.000,4130.6933,N,08415.9490,W,2,09,1.04,7537.9,M,-,14,32,25,10,01,8,W9
$GPGGA,151934.000,4130.7637,N,08415.9377,W,2,09,1.04,7604.6,M,-1.04,7591.5,M,-38,W9
$GPGGA,151948.000,4130.8628,N,08415.9203,W,2,09,1.04,7698.6,M,-15.9218,W,28.04,8,W9
$GPGGA,151954.000,4130.9137,N,08415.9261,W,2,09,1.04,7730.2,M,-952.000,4130.8958,W9
$GPGGA,151958.000,4130.9524,N,08415.9282,W,2,09,1.04,7747.7,M,-04,1.66*0E
$GPGGA,152007.000,4131.0335,N,08415.9448,W,2,348.93,T,,M,30.8,W9
$GPGGA,152011.000,4131.0685,N,08415.9533,W,2,09,1.04,7803.0,M,-.04,7807.4,M,-338,W9
$GPGGA,152017.000,4131.1282,N,08415.9633,W,2,09,1.04,7829.3,M,-K,D*3F
$GPGGA,152024.000,4131.1890,N,08415.9805,W,2,09,1.04,7860.8,M,-3.7,M,0000,0000*8,W9
$GPGGA,152040.000,4131.3289,N,08415.9854,W,2,09,1.04,7951.3,M,-,D*4C
$GPGGA,152041.000,4131.3379,N,08415.9865,W,2,09,1.04,7958.8,M,-,0000,0000*69
$GPGGA,152054.000,4131.4490,N,08415.9739,W,2,10,1.01,8025.6,M,-000*6C
$GPGGA,152104.000,4131.5478,N,08415.9801,W,2,10,1.01,8079.4,M,-01,8066.0,M,-33.8,W9
$GPGGA,152118.000,4131.6704,N,08416.0367,W,2,10,1.01,8145.5,M,-406,W,37.44,344.8,W9
$GPGGA,152124.000,4131.7256,N,08416.0615,W,2,10,1.01,8173.6,M,-122.000,4131.7088,W9
$GPGGA,152128.000,4131.7606,N,08416.0802,W,2,10,1.01,8190.4,M,-846,W,34.16,341.8,W9
$GPGGA,152134.000,4131.8160,N,08416.1059,W,2,10,1.01,8224.1,M,-1,W,2,10,1.01,828,W9
$GPGGA,152151.000,4131.9811,N,08416.1878,W,2,10,1.01,8311.5,M,-3,N,08416.1943,W8,W9
$GPGGA,152157.000,4132.0356,N,08416.2227,W,2,10,1.01,8339.1,M,70,N,69.86,K,D*30
$GPGGA,152200.000,4132.0651,N,08416.2389,W,2,10,1.01,8356.9,M,00,N,70.42,K,D*39
$GPGGA,152208.000,4132.1481,N,08416.2607,W,2,10,1.01,8394.7,M,-0317,,,D*4A
$GPGGA,152220.000,4132.2768,N,08416.3016,W,2,10,1.01,845,39.03,N,72.32,K9
$GPGGA,152221.000,4132.2875,N,08416.3046,W,2,10,1.0ѲsS10,01,22,26,03,19
$GPGGA,152233.000,4132.3968,N,08416.3221,W,2,10,1.01,8534.8,M,-4C
$GPGGA,152237.000,4132.4342,N,08416.3252,W,2,10,1.01,8549.6,M,-,3,31,32,25,10,01,22
$GPGGA,152243.000,4132.4993,N,08416.3347,W,2,10,1.01,8577.8,M,-,3,31,32,25,10,01,22
$GPGGA,152247.000,4132.5433,N,08416.3514,W,2,10,1.01,8601.7,M,-,1.01,1.55*0E
$GPGGA,152254.000,4132.6099,N,08416.3725,W,2,10,1.01,8648.4,M,-,1.01,1.55*0E
$GPGGA,152258.000,4132.6560,N,08416.3779,W,2,10,1.01,8671.5,M,-2.6681,N,08416.3GPR2
$GPGGA,152301.000,4132.6919,N,08416.3886,W,2,10,1.01,8684.7,M,-2.6681,N,08416.3GPR2
$GPGGA,152304.000,4132.7280,N,08416.3953,W,2,10,1.01,8695.7,M,-2.6681,N,08416.3GPR2
$GPGGA,152310.000,4132.7935,N,08416.4131,W,2,10,1.01,8735.0,M,-A
$GPGGA,152340.000,4133.0754,N,08416.4428,W,2,10,1.01,8878.1,M,-,,D*42
$GPGGA,152351.000,4133.2060,N,08416.4804,W,2,10,1.00,8933.9,M,-.00,1.55*0E
$GPGGA,152404.000,4133.3292,N,08416.5063,W,2,10,1.00,9010.4,M,-2861,N,08416.488GPR2
$GPGGA,152408.000,4133.3664,N,08416.5124,W,2,10,1.00,9038.9,M,-D*4A
$GPGGA,152417.000,4133.4673,N,08416.5211,W,2,10,1.00,9080.7,M,-,10,01,22,26,03,GPR2
$GPGGA,152420.000,4133.4962,N,08416.5221,W,2,10,1.00,,,M,34.36,N,63.6GPR2
$GPGGA,152421.000,4133.5050,N,08416.5228,W,2,10,1.00,9103.5,M7
$GPGGA,152433.000,4133.6218,N,08416.5540,W,2,10,1.00,9175.3,M,-,N,66.83,K,D*38
$GPGGA,152434.000,4133.6324,N,08416.5542,W,2,10,1.00,9180.5,M,-5,3.85,310317,,,
$GPGGA,152440.000,4133.6856,N,08416.5535,W,2,10,1.00,9209.8,M,-5,3.85,310317,,,
$GPGGA,152450.000,4133.7819,N,08416.5711,W,2,10,1.00,9272.7,M,-0,352.48,310317,
$GPGGA,152453.000,4133.8068,N,08416.5862,W,2,10,1.00,9286.3,M,-0,352.48,310317,
$GPGGA,152509.000,4133.9374,N,08416.6453,W,2,10,1.0,T,,M,31.22,N,57
$GPGGA,152520.000,4134.0462,N,08416.6853,W,2,10,1.00,9413.0,M,-2,25,10,22,26,03
$GPGGA,152523.000,4134.0757,N,08416.6866,W,2,10,1.00,9428.0,M,-.54*0F
$GPGGA,152541.000,4134.2239,N,08416.7029,W,2,1i驊	&&57,W,29.24,352.12,32
$GPGGA,152551.000,4134.3191,N,08416.7047,W,2,10,1.00,9552.4,M,-000,4134.2714,N,0842
$GPGGA,152555.000,4134.3586,N,08416.7061,W,2,10,1.00,9571.5,M,-000,4134.2714,N,0842
$GPGGA,152558.000,4134.3911,N,08416.7079,W,2,10,1.00,9583.7,M,-.82,K,D*32
$GPGGA,152559.000,4134.4014,N,08416.7086,W,2,10,1.00,rԩi&K-33.7,M,0000,0000842
$GPGGA,152605.000,4134.4660,N,08416.7159,W,2,10,1.00,9612.2,M,-55.95,T,,M,37.46,N,2
$GPGGA,152609.000,4134.5107,N,08416.7208,W,2,10,1.00,9631.5,M,-49.88,310317,,,D,N,2
$GPGGA,152615.000,4134.5787,N,08416.7288,W,2,10,1.00,9662.4,M,-49.88,310317,,,D,N,2
$GPGGA,152618.000,4134.6096,N,08416.7288,W,2,10,1.00,9681.2,n49.88,310317,,,D,N,2
$GPGGA,152619.000,4134.6186,N,08416.7266,W,2,10,1.00,9686.8,M,-34.6273,N,08416.,N,2
$GPGGA,152622.000,4134.6442,N,08416.7243,W,2,10,1.00,970n	1.00,9712.8,M,-3,N,2
$GPGGA,152625.000,4134.6688,N,08416.7250,W,2,10,1.00,9724.5,M,-1.00,9712.8,M,-3,N,2
$GPGGA,152628.000,4134.6903,N,08416.7246,W,2,10,1.00,9736.4,M,-1.00,9712.8,M,-3,N,2
$GPGGA,152632.000,4134.7231,N,08416.7222,W,2,10,1.00,9757.6,M,-,2,10,1.00,9763.,N,2
$GPGGA,152638.000,4134.7742,N,08416.7094,W,2,10,1.00,9784.9,M,-,152636.000,4134,N,2
$GPGGA,152648.000,4134.8534,N,08416.7103,W,2,10,0.99,9842.1,M,-8138,N,08416.704,N,2
$GPGGA,152651.000,4134.8783,N,08416.7147,W,2,10,0.99,9863.1,M,-8138,N,08416.704,N,2
$GPGGA,152652.000,4134.8852,N,08416.7166,W,2,10,0.99,9869.5,M,-3.7,M,0000,0000*6N,2
$GPGGA,152701.000,4134.9454,N,08416.7167,W,2,10,0.99,9908.1,M,-3.7,M,0000,0000*6N,2
$GPGGA,152702.000,4134.9521,N,08416.7163,W,2,10,0.99,9911.2,M,-,,,1.83,0.99,1.56N,2
$GPGGA,152708.000,4134.9936,N,08416.7105,W,2,10,0.99,9932.2,M,-,,,1.83,0.99,1.56N,2
$GPGGA,152709.000,4135.0002,N,08416.7082,W,2,10,0.99,9935.5,M,-MC,152710.000,A,6N,2
$GPGGA,152715.000,4135.0396,N,08416.7024,W,2,10,0.99,9963.7,M,-0,4135.0277,N,086N,2
$GPGGA,152718.000,4135.0597,N,08416.7023,W,2,10,0.r,M,0,4135.0277,N,086N,2
$GPGGA,152719.000,4135.0664,N,08416.7032,W,2,10,0.99,9989.5,M,-,152720.000,A,416N,2
$GPGGA,152728.000,4135.1261,N,08416.7179,W,2,10,0.99,10036.1,M,8,M,-33.7,M,00006N,2
$GPGGA,152735.000,4135.1597,N,08416.7183,W,2,10,0.99,10084.0,M,.98,354.30,310316N,2
$GPGGA,152738.000,4135.1742,N,08416.7079,W,2,10,0.99,10100.1,M,.98,354.30,310316N,2
$GPGGA,152741.000,4135.1896,N,08416.6975,W,2,10,0.99,10112.7,M,,N,38.86,K,D*0C
$GPGGA,152742.000,4135.1953,N,08416.6938,W,2,10,0.99,101bjԦ&135.2008,N,08416
$GPGGA,152748.000,4135.2246,N,08416.6722,W,2,10,0.99,10140.6,M,GGA,152746.000,4
$GPGGA,152751.000,4135.2389,N,08416.6617,W,2,10,0.99,10150.6,M,GGA,152746.000,4
$GPGGA,152754.000,4135.2541,N,08416.6525,W,2,10,0.99,10164.6,M,GGA,152746.000,4
$GPGGA,152758.000,4135.2798,N,08416.6419,W,2,10,0.99,10184.35n0000,0000*59
$GPGGA,152801.000,4135.3005,N,08416.6379,W,2,10,0.99,10196.4,M,0000,0000*59
$GPGGA,152804.000,4135.3205,N,08416.6361,W,2,10,0.99,10207.6,M,0000,0000*59
$GPGGA,152810.000,4135.3582,N,08416.6365,W,2,10,0.99,10235.9,M,34,16,07,188,31,
$GPGGA,152817.000,4135.4019,N,08416.6427,W,2,10,0.99,10261.5,M,,01,,,1.83,0.99,
$GPGGA,152821.000,4135.4232,N,08416.6432,W,2,10,0.99,10285.2,M,9
$GPGGA,152827.000,4135.4612,N,08416.6429,W,2,10,0.99,10325.8,M,9
$GPGGA,152830.000,4135.4836,N,08416.6410,W,2,10,0.99,10339.1,M,9
$GPGGA,152831.000,4135.4895,N,08416.6415,W,2,10,0.99,10345.1,M,,31,32,25,10,22,
$GPGGA,152904.000,4135.6156,N,08416.6269,W,2,10,0.99,10565.6,M,1.82,0.99,1.53*0
$GPGGA,152930.000,4135.6984,N,08416.6224,W,2,10,0.98,10683.8,M,5,310317,,,D*49
$GPGGA,152940.000,4135.7390,N,08416.6092,W,2,10,0.98,10727.1,M,264,N,08416.6132
$GPGGA,152950.000,4135.7815,N,08416.5952,W,VTG,3.62,T,,M,20
$GPGGA,153001.000,4135.8129,N,08416.5709,W,2,10,0.98,10848.1,M,RMC,153002.000,A
$GPGGA,153010.000,4135.8496,N,08416.5732,W,2,10,0.98,10906.8,M,0*7C
$GPGGA,153021.000,4135.9320,N,08416.5652,W,2,10,bt&&&MC,153022.000,A,
$GPGGA,153027.000,4135.9772,N,08416.5659,W,2,10,0.98,10987.7,M,MC,153022.000,A,
$GPGGA,153037.000,4136.0406,N,08416.5594,W,2,10,0.98,11024.6,M,0D
$GPGGA,153040.000,4136.0559,N,08416.5613,W,2,10,0.98,11034.9,M,0D
$GPGGA,153051.000,4136.1172,N,08416.5527,W,2,10,0.98,11075.7,M,5,10,22,26,03,14
$GPGGA,153057.000,4136.1582,N,08416.5478,W,2,10,3.13,N.1453,N,08
$GPGGA,153100.000,4136.1785,N,08416.5484,W,2,10,.27,T,,M,24.78,N
$GPGGA,153107.000,4136.2076,N,08416.5503,W,2,10,0.98,11155.9,M,0.73,K,D*37
$GPGGA,153111.000,4136.2200,N,08416.5423,W,2,10,0.98,11174.n1,0.98,1.52*0C
$GPGGA,153114.000,4136.2333,N,08416.5314,W,2,10,0.98,11190.2,M,1,0.98,1.52*0C
$GPGGA,153120.000,4136.2661,N,08416.5082,W,2,10,0.98,11M,25.78,N,47.78,
$GPGGA,153201.000,4136.4948,N,08416.3801,W,2,10,0.97,1rԩ&K0D
$GPGGA,153207.000,4136.5321,N,08416.3723,W,2,10,0.98,11438.7,M71,N,49.49,K,D*30
$GPGGA,153211.000,4136.5592,N,08416.3573,W,2,10,\Ŋr&.80,0.97,1.52*020
$GPGGA,153220.000,4136.6157,N,08416.3270,W,2,10,0.97,11487.6,M,$GPV08416.3456,W0
$GPGGA,153237.000,4136.7199,N,08416.2579,W,2,10,0.97,11547.8,M,1,K,D*0F
$GPGGA,153240.000,4136.7340,N,08416.2440,W,2,10,0.97,11560.1,M,1,K,D*0F
$GPGGA,153241.000,4136.7401,N,08416.2386,W,2,10,0.97,11564.1,M,8416.2340,W,21.80
$GPGGA,153247.000,4136.7684,N,08416.2145,W,2,10,0.97,11586.5,M,.2232,W,2,10,0.90
$GPGGA,153250.000,4136.7847,N,08416.2082,W,2,10,0.97,11596.3,M,.2232,W,2,10,0.90
$GPGGA,153251.000,4136.7892,N,08416.2048,W,2,10,0.97,11601.0,M,,310317,,,D*76
$GPGGA,153307.000,4136.8681,N,08416.1243,W,2,10,0.97,11694.5,M,9,N,26.10,K,D*0A
$GPGGA,153310.000,4136.8726,N,08416.1093,W,2,10,0.97,117,15.62,N,28.94,K
$GPGGA,153321.000,4136.8940,N,08416.0590,W,2,10,0.97,11748.3,M,25,10,22,26,03,1
$GPGGA,153327.000,4136.9052,N,08416.0337,W,2,10,0.97,11773.8,M,.19,K,D*0F
$GPGGA,153337.000,4136.9346,N,08415.9897,W,2,10,0.97,11807.7,M,36.9163,N,08416.
$GPGGA,153340.000,4136.9436,N,08415.9768,W,2,10,0.97,118114.61,N,27.07,K,
$GPGGA,153347.000,4136.9666,N,08415.9499,W,2,10,0.97,11843.9,M,,K,D*02
$GPGGA,153404.000,4137.0324,N,08415.8811,W,2,10,0.97,11914.0,M,W,2,10,0.97,1190
$GPGGA,153417.000,4137.0857,N,08415.8111,W,2,10,0.97,11961.1,M,53415.000,4137.0
$GPGGA,153427.000,4137.1313,N,08415.7589,W,2,10,0.97,11M,22.35,N,41.41,
$GPGGA,153430.000,4137.1446,N,08415.7424,W,2,10,0.97,12007.154,N,39.91,K,D*0
$GPGGA,153437.000,4137.1742,N,08415.7142,W,2,10,0.97,12034.3,M,4.67,K,D*00
$GPGGA,153447.000,4137.2247,N,08415.6730,W,2,10,0.96,120761.96,N,40.69,K,D
$GPGGA,153450.000,4137.2402,N,08415.6567,W,2,10,0.96,12088.7,M,1.96,N,40.69,K,D
$GPGGA,153451.000,4137.2460,N,08415.6555,W,2,10,0.96,12093.1,M,0317,,,D*76
$GPGGA,153500.000,4137.2876,N,08415.6144,W,2,10,0.96,12132.6,M,5.000,4137.2642,
$GPGGA,153503.000,4137.3007,N,08415.5965,W,2,10,0.96,12146.1,M,D*0F
$GPGGA,153511.000,4137.3466,N,08415.5520,W,2,10,0.96,12182.6,M,,03,14,16,01,,,1
$GPGGA,153517.000,4137.3752,N,08415.4997,W,2,10,0.96,122180.65,N,56.79,K,D
$GPGGA,153520.000,4137.3860,N,08415.4693,W,2,10,0.96,12232.5,M,0.65,N,56.79,K,D
$GPGGA,153523.000,4137.3996,N,08415.4405,W,2,10,0.96,12246.7,M,8.31,K,D*01
$GPGGA,153530.000,4137.4290,N,08415.3784,W,2,10,0.96,12270.4,M,.4094,N,08415.42
$GPGGA,153533.000,4137.4372,N,08415.3547,W,2,10,0.96,12281.4,M,.4094,N,08415.42
$GPGGA,153541.000,4137.4692,N,08415.2882,W,2,10,0.96,12309.0,M,PRMC,153542.000,
$GPGGA,153548.000,4137.4991,N,08415.2279,W,2,10,0.96,12334.8,M,,27.29,61.07,310
$GPGGA,153554.000,4137.5196,N,08415.1655,W,2,10,0.96,12357.6,M,$GPGSA,A,3,31,32
$GPGGA,153604.000,4137.5510,N,08415.0595,W,2,10,0.96,12394.2,M,000,A,4137.5447,
$GPGGA,153621.000,4137.5804,N,08414.8915,W,2,10,0.96,12483.6,M,6,03,14,16,01,,,
$GPGGA,153627.000,4137.5841,N,08414.8244,W,2,10,0.96,12515.2,M,GPGGA,153625.000
$GPGGA,153630.000,4137.5882,N,08414.7961,W,2,10,0.96,12526.3,M,GPGGA,153625.000
$GPGGA,153640.000,4137.6134,N,08414.6910,W,2,10,0.96,12567.2,M,,153636.000,A,41
$GPGGA,153641.000,4137.6146,N,08414.6790,W,2,10,0.96,12570.7,M,3,31,32,25,10,22
$GPGGA,153647.000,4137.6261,N,08414.6155,W,2,10,0.96,12594.8,M,9,K,D*0D
$GPGGA,153650.000,4137.6307,N,08414.5910,W,2,,80.93,T,,M,20.4
$GPGGA,153651.000,4137.6328,N,08414.5820,W,2,10,0.96,1260jjn5A
$GPGGA,153700.000,4137.6603,N,08414.4892,W,2,10,0.96,12648.5,M,PVTG,79.34,T,,M,
$GPGGA,153710.000,4137.6727,N,08414.3771,W,2,10,0.96,12684.5,M,
$GPGGA,153724.000,4137.6934,N,08414.2495,W,2,12,0.76,12733.9,M,7,N,08414.2670,W
$GPGGA,153741.000,4137.7231,N,08414.1126,W,2,12,0.76,12797.2,M,$GPRMC,153742.00
$GPGGA,153751.000,4137.7605,N,08414.0556,W,2,12,0.76,12855.4,M,1.26,0.76,1.00*0D*,2
$GPGGA,153800.000,4137.8049,N,08414.0040,W,2,12,0.76,12893.6,M,N,40.10,K,D*0F
$GPGGA,153810.000,4137.8451,N,08413.9246,W,2,12,0.76,12928.6,M,8,N,53.70,K,D*02
$GPGGA,153814.000,4137.8631,N,08413.8976,W,2,12,0.76,12942.4,M,,1.00*0C
$GPGGA,153830.000,4137.9292,N,08413.7693,W,2,12,0.76,12998.7,M,D*06
$GPGGA,153831.000,4137.9333,N,08413.7604,W,b&L,M,-3\,A,3,31,29,32,25
$GPGGA,153841.000,4137.9755,N,08413.6558,W,2,12,0.76,13043.5,M,26,03,14,16,01,1
$GPGGA,153847.000,4137.9969,N,08413.6019,W,2,,67.45,T,,M,27.3
$GPGGA,153851.000,4138.0175,N,08413.5640,W,2,12,0.76,13082.0,M,GPRMC,153852.000
$GPGGA,153857.000,4138.0496,N,08413.5007,W,2,12,0.76,13101.3,M,,-33.7,M,0000,00
$GPGGA,153907.000,4138.0968,N,08413.4033,W,2,12,0.76,13135.2.63,N,60.47,K,D*
$GPGGA,153914.000,4138.1274,N,08413.3354,W,2,12,0.76,13160.4,M,6,13153.8,M,-33.*
$GPGGA,153924.000,4138.1704,N,08413.2298,W,2,12,0.76,13194.8,M,A,3,31,29,32,25,*
$GPGGA,153934.000,4138.2151,N,08413.1301,W,2,12,0.76,13226.5,M,GA,153932.000,41*
$GPGGA,153940.000,4138.2396,N,08413.0711,W,2,12,0.76,13248.7,M,*73
$GPGGA,153954.000,4138.2932,N,08412.9333,W,2,12,0.76,13300.0,M,08412.9515,W,2,1*
$GPGGA,154010.000,4138.3781,N,08412.7566,W,2,12,0.76,13379.5,M,A,4138.3544,N,08*
$GPGGA,154014.000,4138.3961,N,08412.7055,W,2,12,0.76,13397.1,M,29,32,25,10,23,2*
$GPGGA,154024.000,4138.4448,N,08412.5826,W,2,12,0.76,13435.7,M,,A,3,31,29,32,25*
$GPGGA,154037.000,4138.4963,N,08412.4204,W,2,120.25,T,,M,34.46,*
$GPGGA,154040.000,4138.5078,N,08412.3857,W,2,12,0.76,13493.3,M,0.25,T,,M,34.46,*
$GPGGA,154047.000,4138.5372,N,08412.3057,W,2,12,0.76,13517.4,M,88,N,62.77,K,D*07
$GPGGA,154051.000,4138.5491,N,08412.2592,W,2,12,0.76,13529.6,M,5522,N,08412.2487
$GPGGA,154057.000,4138.5729,N,08412.1940,W,2,12,0.76,13552.9,M3,N,56.01,K,D*08
$GPGGA,154100.000,4138.5827,N,08412.1572,W,2,12,0.76,13564.9,M3,N,56.01,K,D*08
$GPGGA,154101.000,4138.5850,N,08412.1448,W,2,12,0.76,13568.9,M,,73.83,T,,M,30.8
$GPGGA,154103.000,4138.5902,N,08412.1225,W,2,,73.83,T,,M,30.8
$GPGGA,154111.000,4138.6179,N,08412.0284,W,2,12,0.76,13604.7,M,PGSA,A,3,31,29,37
$GPGGA,154117.000,4138.6334,N,08411.9640,W,2,12,0.76,13627.7,M,1.9836,W,2,12,0.7
$GPGGA,154121.000,4138.6421,N,08411.9197,W,2,12,0.76,13643.9,M,34.72,83.47,31037
$GPGGA,154134.000,4138.6596,N,08411.7730,W,2,12,0.76,13692.9,M,76,13685.2,M,-337
$GPGGA,154144.000,4138.6742,N,08411.6645,W,2,12,0.76,13730.2,M,4,16,01,1.26,0.77
$GPGGA,154207.000,4138.7095,N,08411.4041,W,2,12,0.76,13812.4,M,,25,10,23,22,26,0
$GPGGA,154210.000,4138.7135,N,08411.3694,W,2,12,0.76,1382jjn,25,10,23,22,26,0
$GPGGA,154211.000,4138.7155,N,08411.3592,W,2,12,0.76,13828.0,M,154212.000,A,4130
$GPGGA,154214.000,4138.7225,N,08411.3327,W,2,12,0.76D˖SPGGA,154215.000,0
$GPGGA,154220.000,4138.7327,N,08411.2671,W,2,12,0.76,138615n04
$GPGGA,154230.000,4138.7508,N,08411.1663,W,2,12,0.76,1rԩ&
$GPGGA,154237.000,4138.7618,N,08411.1001,W,2,12,0.76,13924.5,M,1,N,49.49,K,D*0E
$GPGGA,154241.000,4138.7621,N,08411.0567,W,2,12,0.76,13939.4,M,,D*72
$GPGGA,154247.000,4138.7722,N,08410.9998,W,2,12,0.76,13962.5,M,,D*72
$GPGGA,154250.000,4138.7746,N,08410.9664,W,2,12,0.76,13972.8,M,,D*72
$GPGGA,154251.000,4138.7757,N,08410.9555,W,2,12,0.76,13977.1,M,M,27.35,N,50.67,
$GPGGA,154253.000,4138.7783,N,08410.9357,W,2,12,0.76,13M,27.35,N,50.67,
$GPGGA,154300.000,4138.7879,N,08410.8698,W,2űLKS&Sb0,N,43.36,K,D*08
$GPGGA,154303.000,4138.7914,N,08410.8365,W,2G,81.66,T,,M,29.
$GPGGA,154307.000,4138.7950,N,08410.8025,W,2,,87.34,T,,M,21.8
$GPGGA,154311.000,4138.7990,N,08410.7616,W,2,12,0.76,14052.1,M,,14,16,01,1.26,0
$GPGGA,154320.000,4138.8045,N,08410.6769,W,2,12,0.76,14085.4,M,12,310317,,,D*7E
$GPGGA,154321.000,4138.8052,N,08410.6663,W,2,12,0.76,14089.0,M,,D*73
$GPGGA,154327.000,4138.8133,N,08410.6096,W,2,12,0.76,14111.2,M,,N,40.84,K,D*04
$GPGGA,154340.000,4138.8305,N,08410.4821,W,2,12,0.76,14165.3,M,,,D*77
$GPGGA,154341.000,4138.8336,N,08410.4746,W,2,12,0.76,rb˖0000,0000*59
$GPGGA,154354.000,4138.8705,N,08410.3615,W,2,12,0.76,14216.8,M,,22,26,03,14,16,
$GPGGA,154411.000,4138.9067,N,08410.2181,W,2,12,rbj7rb	b26,03,14,16,01,1
$GPGGA,154434.000,4138.9682,N,08410.0267,W,2,12,0.75,14378.8,M,6,03,14,16,01,1.
$GPGGA,154501.000,4139.0518,N,08409.8060,W,2,12,0.75,14506.9,M,,154502.000,A,41
$GPGGA,154510.000,4139.0789,N,08409.7337,W,2,12,0.75,14559.9,M,49,K,D*00
$GPGGA,154511.000,4139.0834,N,08409.7242,W,2,12,0.75,14565.4,M,PGSA,A,3,31,29,3
$GPGGA,154537.000,4139.1411,N,08409.4438,W,2,12,0.75,14677.3.03,N,61.21,K,D*
$GPGGA,154547.000,4139.1587,N,08409.3390,W,2,12,0.75,14718.3,M,139.1538,N,08409*
$GPGGA,154601.000,4139.1841,N,08409.1841,W,2,12,0.75,14772.7,M,16,14,01,1.26,0.*
$GPGGA,154611.000,4139.2056,N,08409.0757,W,2,12,0.75,14812.5,M,,01,1.26,0.75,1.*
$GPGGA,154620.000,4139.2253,N,08408.9881,W,b&NN&KS		,01,1.26,0.75,1.*
$GPGGA,154621.000,4139.2285,N,08408.9764,W,2,12,0.75,14852.0,M,000,A,4139.2313,*
$GPGGA,154627.000,4139.2455,N,08408.9146,W,2,12,0.75,14873.6,8.22,N,52.28,K,D*062
$GPGGA,154630.000,4139.2513,N,08408.8836,W,2,12,0.75,14886.2,M,8.22,N,52.28,K,D*062
$GPGGA,154634.000,4139.2604,N,08408.8402,W,2,12,0.75,1490jjnM,-33.7,M,0000,0*062
$GPGGA,154637.000,4139.2674,N,08408.8150,W,2,12,0.75,14912.9,M,M,-33.7,M,0000,0*062
$GPGGA,154640.000,4139.2755,N,08408.7866,W,2,12,0.75,14925.5,M,M,-33.7,M,0000,0*062
$GPGGA,154643.000,4139.2803,N,08408.7534,W,2,12,0.75,14937.2,M,M,-33.7,M,0000,0*062
$GPGGA,154646.000,4139.2884,N,08408.7277,W,2,12,0.75,14948.0,M,,44.87,K,D*08
$GPGGA,154653.000,4139.3131,N,08408.6716,W,2,12,0.75,14980.5,M,0,4139.2942,N,08*062
$GPGGA,154656.000,4139.3180,N,08408.6487,W,2,12,0.75,,,M,21.96,N,40.6*062
$GPGGA,154703.000,4139.3352,N,08408.5971,W,2,12,0.75,15032.4,M,3,N,08408.6345,W*062
$GPGGA,154706.000,4139.3432,N,08408.5736,W,2,12,0.75,15049.8,M,3,N,08408.6345,W*062
$GPGGA,154710.000,4139.3520,N,08408.5319,W,2,12,0.75,15ݹbŹ&33.7,M,0000,0000*062
$GPGGA,154716.000,4139.3663,N,08408.4800,W,2,12,0.75,15107.0,M,33.7,M,0000,0000*062
$GPGGA,154719.000,4139.3773,N,08408.4616,W,2,12,0.75,15123.4,M,9,N,37.23,K,D*0B
$GPGGA,154723.000,4139.3959,N,08408.4363,W,2,12,0.75,15142.5,M,GPGSA,A,3,31,29,
$GPGGA,154726.000,4139.4117,N,08408.4121,W,2,12,0.75,15157.7,M,GPGSA,A,3,31,29,
$GPGGA,154729.000,4139.4337,N,08408.3804,W,2,12,0.75,15169.8,M,GPGSA,A,3,31,29,
$GPGGA,154756.000,4139.5814,N,08408.1181,W,2,12,0.75,15269.6,M,6,0.75,1.01*0E
$GPGGA,154802.000,4139.6076,N,08408.0591,W,2,121.01,T,,M,29.09,
$GPGGA,154806.000,4139.6231,N,08408.0144,W,2,12trbjjn&b0,23,22,26,03,16
$GPGGA,154809.000,4139.6348,N,08407.9847,W,2,12,0.7՚rK54810.000,4139.6
$GPGGA,154812.000,4139.6497,N,08407.9570,W,2,12,0.75,15327.6,M,54810.000,4139.6
$GPGGA,154815.000,4139.6624,N,08407.9274,W,2,12,0.75,15340.2,M,54810.000,4139.6
$GPGGA,154818.000,4139.6736,N,08407.8936,W,2,12,0.75,15351.5,M,54810.000,4139.6
$GPGGA,154819.000,4139.6770,N,08407.8825,W,2,12,0.75,15355.8,M,A,4139.6806,N,08
$GPGGA,154822.000,4139.6900,N,08407.8540,W,2,12,0.75,1rԩ&A,4139.6806,N,08
$GPGGA,154825.000,4139.7060,N,08407.8245,W,2,12,0.75,15378.4,M,A,4139.6806,N,08
$GPGGA,154828.000,4139.7199,N,08407.7882,W,2,12,0.75,15388.3,M,A,4139.6806,N,08
$GPGGA,154832.000,4139.7392,N,08407.7426,W,2,12,0.75,15402.8,M,W,2,12,0.75,1540
$GPGGA,154851.000,4139.8137,N,08407.5228,W,2,12,0.75,15473.6,M,154846.000,4139.
$GPGGA,154854.000,4139.8228,N,08407.4837,W,2,12,0.75,15485.1,M,154846.000,4139.
$GPGGA,154904.000,4139.8563,N,08407.3675,W,2,12,0.75,15521.6,M,.8494,N,08407.39
$GPGGA,154907.000,4139.8632,N,08407.3330,W,TG,75.81,T,,M,32
$GPGGA,154917.000,4139.8870,N,08407.2115,W,2,12,0.75,15570.9,M,08407.2740,W,2,1
$GPGGA,154921.000,4139.8957,N,08407.1681,W,2,12,0.75,15585.7,M,C,154922.000,A,4
$GPGGA,154927.000,4139.9069,N,08407.0965,W,2,12,0.75,15608.5,M36,N,69.23,K,D*04
$GPGGA,154944.000,4139.9391,N,08406.9035,W,2,12,0.75,15675.6,M,,1.26,0.75,1.01*4
$GPGGA,155000.000,4139.9628,N,08406.7461,W,2,12,0.75,15738.0,M,8.68,K,D*02
$GPGGA,155001.000,4139.9643,N,08406.7378,W,2,12,0.75,rbK26,0.75,1.01*0E
$GPGGA,155007.000,4139.9700,N,08406.6847,W,2,12,0.75,15766.0,M,$GPGGA,155005.0
$GPGGA,155010.000,4139.9755,N,08406.6519,W,2,12,0.75,15777.4,M,
$GPGGA,155020.000,4139.9856,N,08406.5543,W,2,12,0.75,15817.7,M,83.91,T,,15.000,4
$GPGGA,155027.000,4139.9972,N,08406.4893,W,2,12,0.75,15846.9,M,C
$GPGGA,155038.000,4140.0147,N,08406.3811,W,2,12,0.75,15894.1,M,5039.000,A,4140.4
$GPGGA,155051.000,4140.0429,N,08406.2382,W,2,12trbjjn&b,26,03,16,14,01,4
$GPGGA,155057.000,4140.0577,N,08406.1689,W,2,12,0.75,15973.5,M,
$GPGGA,155107.000,4140.0760,N,08406.0530,W,2,12,0.75,16016.3.84,N,62.71,K,D*
$GPGGA,155110.000,4140.0795,N,08406.0191,W,2,12,0.75,16028.8,M,3.84,N,62.71,K,D*
$GPGGA,155120.000,4140.1027,N,08405.9031,W,2,171.61,T,,M,34.87*
$GPGGA,155130.000,4140.1239,N,08405.7825,W,2,12,0.75,16115.4,M,D*05
$GPGGA,155137.000,4140.1395,N,08405.6884,W,2,11,0.81,16144.9,M,000,0000*55
$GPGGA,155141.000,4140.1515,N,08405.6419,W,2,11,0.81,16160.9,M,0.1542,N,08405.6*
$GPGGA,155144.000,4140.1578,N,08405.6027,W,2ű	&NS000.81,16176.8,M,-*
$GPGGA,155151.000,4140.1703,N,08405.5193,W,2,11,0.81,16204.2,M,$GPRMC,155152.00*
$GPGGA,155210.000,4140.1910,N,08405.2997,W,2,11,099,T,,M,36.69,N,*
$GPGGA,155221.000,4140.1962,N,08405.1777,W,2,11,0.81,16322.6,M,23,22,26,03,16,1*
$GPGGA,155238.000,4140.2157,N,08404.9917,W,2,11,0.80,16386.9,M,1,1.08*0F
$GPGGA,155257.000,4140.2422,N,08404.7940,W,2,11,0.81,16458.5,M71,N,62.46,K,D*0A
$GPGGA,155310.000,4140.2724,N,08404.6744,W,2,11,0.5,T,,M,26.18,N,4A
$GPGGA,155317.000,4140.2869,N,08404.6067,W,2,11,0.81,16534.1,M,.81,1.09*0E
$GPGGA,155320.000,4140.2957,N,08404.5799,W,2,11,0.81,16545.4,M,.81,1.09*0E
$GPGGA,155327.000,4140.3071,N,08404.5164,W,2,11,0.80,16575.9,M,,31,29,32,25,23,A
$GPGGA,155337.000,4140.3245,N,08404.4267,W,2,11,0.81,16617.2,M,,K,D*07
$GPGGA,155400.000,4140.3172,N,08404.2272,W,2,11,0.8ٺrK,,D*43
$GPGGA,155401.000,4140.3168,N,08404.2195,W,2,11,0.81,16714.4,M,08404.2127,W,17.A
$GPGGA,155410.000,4140.3043,N,08404.1587,W,2,11,0.80,16752.3,M,,D*3E
$GPGGA,155417.000,4140.2992,N,08404.1099,W,2,11,0.80,16782.4,M,23,22,26,03,16,1A
$GPGGA,155420.000,4140.2941,N,08404.0922,W,2,11,0.81,16796.1,M,23,22,26,03,16,1A
$GPGGA,155423.000,4140.2876,N,08404.0794,W,2,11,r$bj7rb	b23,22,26,03,16,1A
$GPGGA,155424.000,4140.2857,N,08404.0739,W,2,11,0.80,16814.3,M,9,32,25,23,22,26A
$GPGGA,155433.000,4140.2838,N,08404.0105,W,2,11,0.80,16853.9,M,1,N,08404.0439,WA
$GPGGA,155440.000,4140.2827,N,08403.9680,W,2,11,0.80,16883.9,M,,,,D*70
$GPGGA,155447.000,4140.2809,N,08403.9238,W,2,11,0.80,16919.2,M,81,1.09*0D
$GPGGA,155453.000,4140.2858,N,08403.8814,W,2,11,0.80,16948.2,M,81,1.09*0D
$GPGGA,155507.000,4140.2848,N,08403.7945,W,2,11,0.80,17013.1,M,,A,4140.2846,N,0A
$GPGGA,155513.000,4140.2883,N,08403.7537,W,2,11,0.80,17038.7,M,,A,4140.2846,N,0A
$GPGGA,155526.000,4140.3061,N,08403.6504,W,2,11,0.80,17091.3,M,,310317,,,D*79
$GPGGA,155529.000,4140.3099,N,08403.6309,W,2,11,0.80,17101.0,M,,310317,,,D*79
$GPGGA,155530.000,4140.3103,N,08403.6231,W,2,11,0.80,17104.3,M,4
$GPGGA,155533.000,4140.3107,N,08403.5966,W,2,11,0.80,17117.7,M,000,A,4140.3128,A
$GPGGA,155542.000,4140.3279,N,08403.5184,W,2,11,064,T,,M,24.38,N,A
$GPGGA,155546.000,4140.3309,N,08403.4774,W,2,11,rbD&)f&16,14,01,,1.36,0A
$GPGGA,155559.000,4140.3497,N,08403.3402,W,2,11,0.80,17224.7,M,14,01,,1.36,0.80A
$GPGGA,155612.000,4140.3521,N,08403.2056,W,2,11,0.81,17284.5,M,6.66,K,D*05
$GPGGA,155615.000,4140.3537,N,08403.1735,W,2,11,0.80,17299.2,M,6.66,K,D*05
$GPGGA,155626.000,4140.3425,N,08403.0739,W,2,11,0.80,17340.2,M,A,4140.3418,N,08A
$GPGGA,155635.000,4140.3386,N,08402.9830,W,2,11,0.81,17376.2,M,GPGSA,A,3,31,29,A
$GPGGA,155639.000,4140.3316,N,08402.9394,W,2,11,0.80,17391.0,M0000,0000*56
$GPGGA,155645.000,4140.3253,N,08402.8751,W,2,11,0.80,17414.8,M,0000,0000*56
$GPGGA,155649.000,4140.3244,N,08402.8315,W,2,11,0.80,17430.5,M,D*47
$GPGGA,155659.000,4140.3131,N,08402.7137,W,2,11,0.81,17464.7,M,3,31,29,32,25,23A
$GPGGA,155705.000,4140.3026,N,08402.6468,W,2,11,0.80,17488.0,M,3,31,29,32,25,23A
$GPGGA,155709.000,4140.2930,N,08402.6061,W,2,11,0.80,17504.2,M,,23,22,26,03,16,A
$GPGGA,155715.000,4140.2863,N,08402.5523,W,2,11,0.80,17526.7,M,,23,22,26,03,16,A
$GPGGA,155719.000,4140.2799,N,08402.5107,W,2,11,0.80,17541.1,M,77,T,,M,30.91,N,A
$GPGGA,155721.000,4140.2781,N,08402.4883,W,2,11,077,T,,M,30.91,N,A
$GPGGA,155725.000,4140.2755,N,08402.4495,W,2,11,0.81,17562.677,T,,M,30.91,N,A
$GPGGA,155726.000,4140.2758,N,08402.4404,W,2,11,0.80,17565.7,M,7,,,D*76
$GPGGA,155736.000,4140.2675,N,08402.3501,W,2,11,0.81,17605.2,M,8402.3415,W,24.7A
$GPGGA,155742.000,4140.2645,N,08402.2923,W,2,11,0.81,17629.9,M59,N,49.26,K,D*0C
$GPGGA,155745.000,4140.2654,N,08402.2683,W,2,11,0.81,17640.5,M,K,D*00
$GPGGA,155752.000,4140.2715,N,08402.2145,W,2,11,0.81,17670.3,M,2323,W,2,11,0.81C
$GPGGA,155756.000,4140.2792,N,08402.1804,W,2,11,0.81,17689.4,M,RMC,155757.000,AC
$GPGGA,155809.000,4140.2860,N,08402.1101,W,2,11,0.80,17747.4,M,1,0.81,17738.8,MC
$GPGGA,155826.000,4140.2964,N,08402.0167,W,2,11,0.80,1782jjn3
$GPGGA,155842.000,4140.3101,N,08401.9543,W,2,11,0.81,17887.5,M,W,2,11,0.81,1786C
$GPGGA,155852.000,4140.3240,N,08401.9212,W,2,11,0.81,17932.9,M,.3149,N,08401.93C
$GPGGA,155855.000,4140.3240,N,08401.9118,W,2,11,0.81T,,M,10.99,N,20.C
$GPGGA,155856.000,4140.3240,N,08401.9093,W,2,11,0.81,17947.0,M,,1.11*05
$GPGGA,155859.000,4140.3271,N,08401.9056,W,2,11,0.81,17960.1,M,,1.11*05
$GPGGA,155915.000,4140.3483,N,08401.8660,W,2,11,0.53,T,,M,7.04,N,C
$GPGGA,155942.000,4140.3709,N,08401.8302,W,2,11,0.80,18134.1,M,0,K,D*07
$GPGGA,155946.000,4140.3742,N,08401.8163,W,2,11,0.81,18150.9,M,.81,1.11*05
$GPGGA,155952.000,4140.3818,N,08401.8084,W,2,11,0.81,18173.2,M,K,D*31
$GPGGA,155955.000,4140.3836,N,08401.8026,W,2,11,0.81,18187.1,M,K,D*31
$GPGGA,155956.000,4140.3840,N,08401.7992,W,2,1rrbjj	9,32,25,23,22,26C
$GPGGA,160006.000,4140.3928,N,08401.7751,W,2,11,rb)&SLL,23,22,26,03,16,C
$GPGGA,160036.000,4140.4242,N,08401.6963,W,2,11,0.81,18376.6,M,A,A,3,31,29,32,25
$GPGGA,160052.000,4140.4460,N,08401.6584,W,2,11,0.81,18445.7,M,0050.000,4140.445
$GPGGA,160105.000,4140.4659,N,08401.6050,W,2,11,0.81,,,M,16.95,N,31.45
$GPGGA,160109.000,4140.4716,N,08401.5869,W,2,11,0.81,18520.1,M,23,22,26,03,16,15
$GPGGA,160115.000,4140.4800,N,08401.5598,W,2,11,0.81,18543.9,M,05
$GPGGA,160119.000,4140.4813,N,08401.5339,W,2,11,0.81,18560.8,M,22,26,03,16,14,05
$GPGGA,160129.000,4140.4905,N,08401.4887,W,2,11,0.81,18604.6,M,,1.37,0.81,1.11*5
$GPGGA,160135.000,4140.4993,N,08401.4594,W,2,11,0.81,18630.4,M,10,01,160,34*4B
$GPGGA,160146.000,4140.4996,N,08401.4065,W,2,11,0.81,18678.8,7
$GPGGA,160153.000,4140.4976,N,08401.3852,W,2,11,0.81,18709.7,M,,310317,,,D*78
$GPGGA,160159.000,4140.4982,N,08401.3587,W,2,11,0.81,18734.7,M,00*5E
$GPGGA,160203.000,4140.4953,N,08401.3482,W,2,11,0.81,18752.0,M,160204.000,A,4145
$GPGGA,160216.000,4140.4858,N,08401.2911,W,2,11,0.81,18806.2,M,03,16,14,,1.38,05
$GPGGA,160219.000,4140.4877,N,08401.2739,W,2,11,0.81,18818.8,M,03,16,14,,1.38,05
$GPGGA,160233.000,4140.4885,N,08401.2147,W,2,11,0.81,18878.4,M,09
$GPGGA,160242.000,4140.4873,N,08401.1594,W,2,11,0.81,18918.3,M,,25,01,23,22,26,0
$GPGGA,160245.000,4140.4902,N,08401.1458,W,2,115.25,T,,M,12.81,0
$GPGGA,160249.000,4140.4978,N,08401.1279,W,2,11,0.81,18949.1,M,01,23,22,26,03,10
$GPGGA,160305.000,4140.5070,N,08401.0516,W,2,11,0.81,19018.6,M,,N,08401.0743,W,0
$GPGGA,160315.000,4140.5121,N,08401.0313,W,2,11,0.81,19061.8,M,0,A,4140.5101,N,0
$GPGGA,160322.000,4140.5153,N,08401.0131,W,2,11,0.80,19092.1,M,0D
$GPGGA,160333.000,4140.5278,N,08400.9924,W,2,11,0.81,19139.8,M,PVTG,343.11,T,,M0
$GPGGA,160339.000,4140.5330,N,08400.9831,W,2,11,0.81,19168.5,M,0.9904,W,2,11,0.0
$GPGGA,160349.000,4140.5296,N,08400.9659,W,2,11,0.80,19209.3,M,4140.5305,N,08400
$GPGGA,160353.000,4140.5324,N,08400.9575,W,2,11,0.81,19224.5,M,,0.81,1.12*09
$GPGGA,160405.000,4140.5256,N,08400.9297,W,2,11,0.81,19273.4,M,.11,K,D*35
$GPGGA,160413.000,4140.5201,N,08400.9043,W,2,11,0.81,19306.4,M,,A,4140.5180,N,00
$GPGGA,160416.000,4140.5150,N,08400.9002,W,2,11,0.81,19ŹbŹ&23,22,26,03,16,10
$GPGGA,160426.000,4140.5072,N,08400.8784,W,2,11,0.81,19360.9,M,6,14,,1.38,0.81,0
$GPGGA,160429.000,4140.5064,N,08400.8746,W,2,11,0.80,19373.4,M,6,14,,1.38,0.81,0
$GPGGA,160442.000,4140.5155,N,08400.8599,W,VTG,151.80,T,,M,0
$GPGGA,160443.000,4140.5168,N,08400.8615,W,2,11,0.81,19440.5,M,0.5183,N,08400.80
$GPGGA,160459.000,4140.5377,N,08400.8589,W,2,11,0.81,19511.5,M,0,0000*50
$GPGGA,160512.000,4140.5647,N,08400.8559,W,2,11,0.81,19562.0,M,29,32,25,01,23,26
$GPGGA,160525.000,4140.6013,N,08400.8517,W,2,,19.56,T,,M,12.96
$GPGGA,160532.000,4140.6256,N,08400.8508,W,2,11,0.81,19641.5,M63,N,14.15,K,D*0D
$GPGGA,160539.000,4140.6452,N,08400.8458,W,2,11,0.81,19670.0,M,7,M,0000,0000*5D
$GPGGA,160602.000,4140.7026,N,08400.8308,W,2,11,0.81,19765.3,M,00*51
$GPGGA,160605.000,4140.7100,N,08400.8280,W,2,11,0.81,19777.2,M,00*51
$GPGGA,160616.000,4140.7124,N,08400.8187,W,2,11,0.80,19821.8,M,,M,-33.7,M,0000,
$GPGGA,160619.000,4140.7195,N,08400.8164,W,2,11,0.81,19833.6,M,,M,-33.7,M,0000,
$GPGGA,160632.000,4140.7335,N,08400.8060,W,2,11,0.81,19886N,11.72,K,D56
$GPGGA,160635.000,4140.7342,N,08400.8021,W,2,11,0.81,19896.9,M,N,11.72,K,D56
$GPGGA,160636.000,4140.7350,N,08400.8004,W,2,11,0.81,19901.0,M,364,N,08400.7991
$GPGGA,160645.000,4140.7519,N,08400.8016,W,2,11,0.81,19945.1,M,,,D*72
$GPGGA,160652.000,4140.7626,N,08400.8030,W,2,11,0.81,19975.4,M,,3,31,29,32,25,0
$GPGGA,160655.000,4140.7679,N,08400.8088,W,2,11,0.81,19986.2,M,*03
$GPGGA,160713.000,4140.7905,N,08400.8035,W,2,11,0.81,20060.7,M,000,A,4140.7939,2
$GPGGA,160729.000,4140.8372,N,08400.7908,W,2,11,0.81,20136.0,M,4140.8305,N,08402
$GPGGA,160733.000,4140.8471,N,08400.7923,W,2,11,0.81,20154.1,M,MC,160734.000,A,2
$GPGGA,160736.000,4140.8535,N,08400.7891,W,2,11,0.81,20168.6,M,MC,160734.000,A,2
$GPGGA,160739.000,4140.8612,N,08400.7788,W,2,11,0.81,20181.1,M,MC,160734.000,A,2
$GPGGA,160743.000,4140.8677,N,08400.7698,W,2,11,0.81,20200.9,M,03,16,14,,1.39,02
$GPGGA,160749.000,4140.8745,N,08400.7668,W,2,11,0.81,20227.0,M,0.7707,W,2,11,0.2
$GPGGA,160753.000,4140.8778,N,08400.7558,W,2,11,0.81,20243.9,M,06,K,D*31
$GPGGA,160755.000,4140.8784,N,08400.7518,W,2,11,0.81,20253.2,M,06,K,D*31
$GPGGA,160759.000,4140.8835,N,08400.7497,W,2,11,0.81,20271.9,M,06,K,D*31
$GPGGA,160813.000,4140.8977,N,08400.7445,W,2,11,0.81,20338.3,M,
$GPGGA,160819.000,4140.8985,N,08400.7363,W,2,11,0.81,20366.5,M,
$GPGGA,160823.000,4140.9006,N,08400.7427,W,2,11,0.81,20384.8,M,MC,160824.000,A,2
$GPGGA,160826.000,4140.9012,N,08400.7420,W,2,11,0.81,20398.4,M,MC,160824.000,A,2
$GPGGA,160829.000,4140.9032,N,08400.7370,W,2,11,0.81,20411.2,M,MC,160824.000,A,2
$GPGGA,160833.000,4140.9027,N,08400.7394,W,2,11,0.81,20428.4,M,C,160834.000,A,42
$GPGGA,160855.000,4140.9011,N,08400.7627,W,2,11,0.81,20526.7,M,K,D*36
$GPGGA,160859.000,4140.9061,N,08400.7708,W,2,11,0.81,20543.5,M,9
$GPGGA,160902.000,4140.9114,N,08400.7731,W,2,11,0.81,20559.5,M,9
$GPGGA,160905.000,4140.9153,N,08400.7711,W,2,11,0.81,20573.5,M,9
$GPGGA,160913.000,4140.9292,N,08400.7748,W,2,11,0.81,20611.7,M,.39,0.81,1.13*092
$GPGGA,160922.000,4140.9466,N,08400.7577,W,2,11,0.81,20655.3,M,0000,0000*5E
$GPGGA,160925.000,4140.9551,N,08400.7544,W,2,11,.44,T,,M,10.98,N2
$GPGGA,160933.000,4140.9659,N,08400.7292,W,2,11,0.81,20706.2,M,08400.7257,W,12.2
$GPGGA,160943.000,4140.9902,N,08400.6960,W,2,11,0.81,20751.1,M,,03,16,14,,1.39,2
$GPGGA,160949.000,4141.0073,N,08400.6734,W,2,11,0.81,20777.6,M,2,25,01,23,22,262
$GPGGA,160953.000,4141.0217,N,08400.6530,W,2,11,0.81,20796.1,M,GPRMC,160954.0002
$GPGGA,160959.000,4141.0313,N,08400.6237,W,2,11,0.81,20823.5,M,,0.81,20813.7,M,2
$GPGGA,161005.000,4141.0467,N,08400.5947,W,2,11,0.81,20850.6,M,2,310317,,,D*77
$GPGGA,161012.000,4141.0564,N,08400.5682,W,2,11,061,T,,M,14.26,N,2
$GPGGA,161033.000,4141.0684,N,08400.5197,W,2,11,0.81,20971.5,M,23,22,26,03,16,12
$GPGGA,161039.000,4141.0704,N,08400.5041,W,2,11,0.81,20996.4,M,23,22,26,03,16,12
$GPGGA,161043.000,4141.0633,N,08400.4998,W,2,11,0.81,21014.3,M,RMC,161044.000,A2
$GPGGA,161049.000,4141.0584,N,08400.4875,W,2,11,0.81,21040.5,M,31,29,32,25,01,22
$GPGGA,161052.000,4141.0517,N,08400.4820,W,2,11,0.81,21053.1,M,31,29,32,25,01,22
$GPGGA,161056.000,4141.0404,N,08400.4788,W,2,11,0.81,21070.9,M,0,0000*59
$GPGGA,161102.000,4141.0344,N,08400.4714,W,2,11,0.81,21097.1,M,0,0000*59
$GPGGA,161106.000,4141.0207,N,08400.4650,W,2,11,0.81,21115.4,M,.13*09
$GPGGA,161112.000,4141.0081,N,08400.4610,W,2,11,0.81,21142.0,M,114,N,08400.46172
$GPGGA,161116.000,4140.9972,N,08400.4573,W,2,11,0.81,21159.6,M,,1.13*09
$GPGGA,161119.000,4140.9849,N,08400.4536,W,2,11,0.81,21171.5,M,,1.13*09
$GPGGA,161123.000,4140.9766,N,08400.4465,W,2,11,0.81,21188.6,M,31,310317,,,D*732
$GPGGA,161149.000,4140.9390,N,08400.4108,W,2,11,0.81,21301.4,M,,32,25,01,23,22,2
$GPGGA,161155.000,4140.9296,N,08400.3966,W,2,11,0.81,21328.1,M,,K,D*0D
$GPGGA,161156.000,4140.9285,N,08400.3953,W,2,11,0.81,21333.1,M,3,31,29,32,25,012
$GPGGA,161202.000,4140.9256,N,08400.3923,W,2,11,0.81,21357.6,M,42,K,D*38
$GPGGA,161223.000,4140.9051,N,08400.3653,W,2,11,0.81,21451.3,M,,14,,1.39,0.81,12
$GPGGA,161232.000,4140.8946,N,08400.3612,W,2,11,0.90,T,,M,6.22,N,12
$GPGGA,161236.000,4140.8967,N,08400.3565,W,2,11,0.81,21511.3,M,M,-33.7,M,0000,02
$GPGGA,161242.000,4140.8910,N,08400.3535,W,2,11,0.81,21536.6,M,GGA,161240.000,42
$GPGGA,161245.000,4140.8878,N,08400.3497,W,2,11,0.81,21550.5,M,GGA,161240.000,42
$GPGGA,161249.000,4140.8864,N,08400.3388,W,2,11,0.81,21568.6,M,GGA,161240.000,42
$GPGGA,161253.000,4140.8853,N,08400.3286,W,2,11,0.81,21589.1,M,
$GPGGA,161259.000,4140.8795,N,08400.3160,W,2,11,0.81,21617.1,M,$GPGSA,A,3,31,292
$GPGGA,161306.000,4140.8736,N,08400.3000,W,2,11,0.81,21չbjj&K140.8726,N,084002
$GPGGA,161309.000,4140.8708,N,08400.2951,W,2,11,0.81,21666.2,M,140.8726,N,084002
$GPGGA,161312.000,4140.8695,N,08400.2833,W,2,195.26,T,,M,11.482
$GPGGA,161325.000,4140.8664,N,08400.2505,W,2,11,0.81,21743.4,M,2669,W,8.90,81.32
$GPGGA,161326.000,4140.8660,N,08400.2472,W,2,11$rbjjn&b,23,22,26,03,16,2
$GPGGA,161329.000,4140.8630,N,08400.2424,W,2,11,0.81,21762.7,M,,23,22,26,03,16,2
$GPGGA,161333.000,4140.8605,N,08400.2314,W,2,11,0.81,21782.4,M,PRMC,161334.000,2
$GPGGA,161342.000,4140.8577,N,08400.2042,W,2,11,0.81,21825.6,M,61340.000,4140.82
$GPGGA,161349.000,4140.8633,N,08400.1757,W,2,11,0.81,21858.8,M,,29,32,25,01,23,2
$GPGGA,161402.000,4140.8648,N,08400.1293,W,2,11,0.81,2192,9.50,N,17.61,K,2
$GPGGA,161405.000,4140.8625,N,08400.1210,W,TG,112.19,T,,M,72
$GPGGA,161412.000,4140.8656,N,08400.0817,W,2,10,0.88,21968.0,M,.40,0.81,1.13*072
$GPGGA,161415.000,4140.8618,N,08400.0705,W,2,10,0.89,21981.2,M32,N,19.13,K,D*35
$GPGGA,161419.000,4140.8569,N,08400.0571,W,2,10,0.89,21999.2,M,1,29,32,25,23,225
$GPGGA,161422.000,4140.8549,N,08400.0421,W,2G,95.80,T,,M,14.5
$GPGGA,161432.000,4140.8444,N,08400.0137,W,2,10,0.89,22058.2,M,,N,18.01,K,D*03
$GPGGA,161442.000,4140.8247,N,08359.9815,W,2,10,0.89,22103.1,M,,08359.9917,W,2,
$GPGGA,161452.000,4140.8021,N,08359.9494,W,2,10,0.89,22151.3,M,PGGA,161450.000,
$GPGGA,161455.000,4140.7952,N,08359.9463,W,2,1156.04,T,,M,7.95
$GPGGA,161503.000,4140.7834,N,08359.9243,W,2,10,0.89,22203.8,M,17,,,D*4D
$GPGGA,161519.000,4140.7421,N,08359.9007,W,2,10,0.89,22279.8,M,7467,N,08359.903
$GPGGA,161523.000,4140.7369,N,08359.8905,W,2,10,0.89,22298.5,M,7351,N,08359.889
$GPGGA,161529.000,4140.7207,N,08359.8904,W,2,10,0.89,22325.7,M,3,16,14,,,1.69,0
$GPGGA,161535.000,4140.7083,N,08359.8807,W,2,10,0.89,22354.0,M,7,K,D*0D
$GPGGA,161539.000,4140.6988,N,08359.8792,W,2,10,0.89,22373.4,M,-33.7,M,0000,000
$GPGGA,161542.000,4140.6909,N,08359.8822,W,2,10,0.89,22387.8,M,-33.7,M,0000,000
$GPGGA,161543.000,4140.6892,N,08359.8816,W,2,10,0.89,22392.8,M,TG,123.84,T,,M,5
$GPGGA,161545.000,4140.6875,N,08359.8784,W,2TG,123.84,T,,M,5
$GPGGA,161552.000,4140.6784,N,08359.8763,W,2,10,0.89,22434.5,M,.62,K,D*0A
$GPGGA,161555.000,4140.6758,N,08359.8757,W,2,10,0.86,22448.5,M,.62,K,D*0A
$GPGGA,161559.000,4140.6781,N,08359.8692,W,2,10,0.89,22466.3,M,
$GPGGA,161619.000,4140.6745,N,08359.8568,W,2,10,0.89,22557.4,M,SA,A,3,31,29,32,
$GPGGA,161625.000,4140.6735,N,08359.8443,W,2,10,0.87,2T,,M,3.81,N,7.06
$GPGGA,161635.000,4140.6627,N,08359.8310,W,2G,120.19,T,,M,7.
$GPGGA,161642.000,4140.6460,N,08359.8269,W,2,10,0.89,22663.8,M,GPGGA,161640.000
$GPGGA,161649.000,4140.6342,N,08359.8108,W,2,10,0.89,22698.0,M,1,29,32,25,23,22
$GPGGA,161709.000,4140.6095,N,08359.8139,W,2,10,0.90,22787.8,M,.8,M,-33.7,M,000
$GPGGA,161713.000,4140.6019,N,08359.8139,W,2,10,0.90,22806.7,M,148.99,310317,,,
$GPGGA,161719.000,4140.5925,N,08359.8034,W,2,10,0.90,22835.7,M,825.7,M,-33.7,M,
$GPGGA,161722.000,4140.5927,N,08359.8006,W,2,10,0.90,22847.7,M,825.7,M,-33.7,M,
$GPGGA,161725.000,4140.5943,N,08359.7971,W,2,10,0.87,22860.9,M,825.7,M,-33.7,M,
$GPGGA,161729.000,4140.5902,N,08359.7910,W,2,10,0.90,22879.1,M,,23,22,26,03,16,
$GPGGA,161739.000,4140.5856,N,08359.7783,W,2,10,0.87,22926.8,M,359.7800,W,2,10,
$GPGGA,161743.000,4140.5785,N,08359.7679,W,2,10,0.90,22945.8,M,.7662,W,5.49,126
$GPGGA,161749.000,4140.5783,N,08359.7601,W,2,10,0.90,22972.7,M,,2,10,0.87,22963
$GPGGA,161753.000,4140.5750,N,08359.7482,W,2,10,0.90,22990.5,M,310317,,,D*4D
$GPGGA,161805.000,4140.5658,N,08359.7202,W,2,1035.38,T,,M,9.01,
$GPGGA,161809.000,4140.5593,N,08359.7087,W,2,10,0.90,23063.9,M,23,22,26,03,16,1
$GPGGA,161813.000,4140.5567,N,08359.7075,W,2,10,0.87,23080.4,M,,0.83*0E
$GPGGA,161819.000,4140.5491,N,08359.7019,W,2,10,0.90,23105.5,M,,0.83*0E
$GPGGA,161822.000,4140.5447,N,08359.6969,W,2,10,0.90,23119.1,M79,N,12.59,K,D*04
$GPGGA,161833.000,4140.5393,N,08359.6985,W,2,10,0.90,23165.3,M,69,W,3.41,126.234
$GPGGA,161839.000,4140.5352,N,08359.7031,W,2,10,0.90,23191.3,M,$GPGSA,A,3,31,294
$GPGGA,161843.000,4140.5333,N,08359.7112,W,2,10,0.87,23210.2,M,140.5336,N,083594
$GPGGA,161849.000,4140.5347,N,08359.7113,W,2,10,0.87,23236.1,M,7.1,M,-33.7,M,004
$GPGGA,161853.000,4140.5329,N,08359.7178,W,2,10,0.90,23253.1,M,E
$GPGGA,161859.000,4140.5322,N,08359.7097,W,2,10,0.90,23279.5,M,1,29,32,25,23,224
$GPGGA,161909.000,4140.5286,N,08359.7201,W,2,10,0.87,23325.7,M,6.47,310317,,,D*4
$GPGGA,161913.000,4140.5273,N,08359.7214,W,2,10,0.87,23344.0,M,2,25,23,22,26,034
$GPGGA,161949.000,4140.4957,N,08359.7421,W,2,10,0.91,23511.9,M,00,0000*56
$GPGGA,161952.000,4140.4913,N,08359.7359,W,2,10,0.91,23526.8,M,
$GPGGA,161955.000,4140.4875,N,08359.7366,W,2,10,0.91,23540.1,M,
$GPGGA,162005.000,4140.4686,N,08359.7199,W,2,1045.75,T,,M,7.45,4
