$GPGGA,145214.000,4127.1833,N,08417.9735,W,1,03,4.91,183.7,M,-300*0C
$GPGGA,145221.000,4127.1839,N,08417.9752,W,1,03,4.91,183.7,M,͹3.7,M,,*5A
$GPGGA,145224.000,4127.1832,N,08417.9750,W,1,03,4.91,183.7,M,-33.7,M,,*5A
$GPGGA,145228.000,4127.1883,N,08417.9658,W,1,06,1.94,228.2,M,-3,,,,,2.15,1.94,0.92*
$GPGGA,145234.000,4127.1887,N,08417.9660,W,1,07,1.83,229.0,M,-3,,,,,2.15,1.94,0.92*
$GPGGA,145238.000,4127.1887,N,08417.9660,W,1,07,1.83,229.0,M,-3,-33.7,M,,*51
$GPGGA,145241.000,4127.1887,N,08417.9660,W,1,07,1.83,229.0,M,-3,-33.7,M,,*51
$GPGGA,145318.000,4127.1883,N,08417.9659,W,1,09,1.02,228.4,M,-37,M,,*52
$GPGGA,145324.000,4127.1883,N,08417.9659,W,1,09,1.02,228.4,M,-37,M,,*52
$GPGGA,145418.000,4127.1862,N,08417.9718,W,1,09,1.01,219.8,M,-3,264,*4B
$GPGGA,145436.000,4127.1857,N,08417.9720,W,1,09,0.99,219.9,M,-3.99,0.80*0F
$GPGGA,145442.000,4127.1849,N,08417.9729,W,1,09,0.99,220.2,M,-3.99,0.80*0F
$GPGGA,145445.000,4127.1847,N,08417.9728,W,1,09,0.99,220.5,M,-3,N,0.08,K,A*31
$GPGGA,145449.000,4127.1867,N,08417.9738,W,1,09,0.99,222.1,M,-3,N,0.08,K,A*31
$GPGGA,145509.000,4127.1793,N,08418.0361,W,1,09,1.01,316.1,M,-3*05
$GPGGA,145659.000,4127.3246,N,08418.0823,W,1,09,1.00,848.9,M,-3*03
$GPGGA,145705.000,4127.3232,N,08418.0714,W,1,09,1.00,880.6,M,-3*03
$GPGGA,145708.000,4127.3222,N,08418.0666,W,1,09,1.00,898.0,M,-3*03
$GPGGA,145739.000,4127.3259,N,08418.0263,W,1,09,1.00,1073.0,M,-*0B
$GPGGA,145757.000,4127.3295,N,08418.0112,W,1,09,0.99,1170.5,M,-,M,,*66
$GPGGA,145827.000,4127.3571,N,08417.9703,W,1,09,0.99,1318.5,M,-10.26,K,A*38
$GPGGA,145858.000,4127.3919,N,08417.8890,W,1,09,0.99,1467.9,M,-4,0.99,1.30*02
$GPGGA,145901.000,4127.3973,N,08417.8830,W,1,09,0.99,1480.4,M,-4,0.99,1.30*02
$GPGGA,145918.000,4127.4135,N,08417.8302,W,1,09,0.99,1562.8,M,-0*05
$GPGGA,145921.000,4127.4129,N,08417.8214,W,1,09,0.99,1576.1,M,-0*05
$GPGGA,145924.000,4127.4122,N,08417.8188,W,2,09,0.97,1588.9,M,-0*05
$GPGGA,150018.000,4127.4505,N,08417.6833,W,2,09,0.98,1831.3,M,-*0C
$GPGGA,150159.000,4127.7210,N,08417.5391,W,2,10,0.83,2361.1,M,-D*34
$GPGGA,150210.000,4127.7576,N,08417.5251,W,2,10,0.83,2411.1,M,-*0C
$GPGGA,150307.000,4127.8868,N,08417.5555,W,2,10,0.83,2697.3,M,-1.34,K,D*05
$GPGGA,150338.000,4127.9360,N,08417.5882,W,2,10,0.83,2860.4,M,-3,1.20*0C
$GPGGA,150344.000,4127.9552,N,08417.5950,W,2,10,0.83,2890.3,M,-3,1.20*0C
$GPGGA,150828.000,4128.6486,N,08417.6375,W,2,10,0.83,4331.1,M,-8,310317,,,D*75
$GPGGA,150834.000,4128.6651,N,08417.6268,W,2,10,0.83,4358.1,M,-8,310317,,,D*75
$GPGGA,150848.000,4128.7038,N,08417.6248,W,2,10,0.83,4431.9,M,-19*05
$GPGGA,150930.000,4128.8174,N,08417.5600,W,2,10,0.83,4631.3,M,-,D*3D
$GPGGA,151024.000,4128.8362,N,08417.5657,W,2,10,0.83,4900.7,M,-,0000,0000*6A
$GPGGA,151107.000,4128.8847,N,08417.5291,W,2,10,0.83,5155.2,M,-,D*32
$GPGGA,151127.000,4128.9119,N,08417.5039,W,2,10,0.83,5261.9,M,-,N,23.19,K,D*0A
$GPGGA,151213.000,4128.9804,N,08417.4193,W,2,10,0.83,5443.1,M,-1.17*0D
$GPGGA,151500.000,4129.4638,N,08416.9144,W,2,10,0.82,6238.5,M,-9,K,D*0E
$GPGGA,151558.000,4129.6708,N,08416.6879,W,2,10,0.82,6486.7,M,-82,1.15*0F
$GPGGA,151604.000,4129.6857,N,08416.6689,W,2,10,0.82,6516.9,M,-,0000*65
$GPGGA,151637.000,4129.8169,N,08416.5634,W,2,10,0.82,6663.9,M,-,D*00
$GPGGA,151748.000,4130.1216,N,08416.2307,W,2,10,0.82,7059.8,M,-.82,1.15*0C
$GPGGA,151818.000,4130.2743,N,08416.0998,W,2,10,0.82,7204.6,M,-*77
$GPGGA,151900.000,4130.5289,N,08416.0128,W,2,09,1.04,7408.3,M,-,K,D*0C
$GPGGA,151958.000,4130.9524,N,08415.9282,W,2,09,1.04,7747.7,M,-04,1.66*0E
$GPGGA,152017.000,4131.1282,N,08415.9633,W,2,09,1.04,7829.3,M,-K,D*3F
$GPGGA,152040.000,4131.3289,N,08415.9854,W,2,09,1.04,7951.3,M,-,D*4C
$GPGGA,152041.000,4131.3379,N,08415.9865,W,2,09,1.04,7958.8,M,-,0000,0000*69
$GPGGA,152054.000,4131.4490,N,08415.9739,W,2,10,1.01,8025.6,M,-000*6C
$GPGGA,152157.000,4132.0356,N,08416.2227,W,2,10,1.01,8339.1,M,70,N,69.86,K,D*30
$GPGGA,152200.000,4132.0651,N,08416.2389,W,2,10,1.01,8356.9,M,00,N,70.42,K,D*39
$GPGGA,152208.000,4132.1481,N,08416.2607,W,2,10,1.01,8394.7,M,-0317,,,D*4A
$GPGGA,152247.000,4132.5433,N,08416.3514,W,2,10,1.01,8601.7,M,-,1.01,1.55*0E
$GPGGA,152254.000,4132.6099,N,08416.3725,W,2,10,1.01,8648.4,M,-,1.01,1.55*0E
$GPGGA,152340.000,4133.0754,N,08416.4428,W,2,10,1.01,8878.1,M,-,,D*42
$GPGGA,152351.000,4133.2060,N,08416.4804,W,2,10,1.00,8933.9,M,-.00,1.55*0E
$GPGGA,152408.000,4133.3664,N,08416.5124,W,2,10,1.00,9038.9,M,-D*4A
$GPGGA,152433.000,4133.6218,N,08416.5540,W,2,10,1.00,9175.3,M,-,N,66.83,K,D*38
$GPGGA,152523.000,4134.0757,N,08416.6866,W,2,10,1.00,9428.0,M,-.54*0F
$GPGGA,152558.000,4134.3911,N,08416.7079,W,2,10,1.00,9583.7,M,-.82,K,D*32
$GPGGA,152741.000,4135.1896,N,08416.6975,W,2,10,0.99,10112.7,M,,N,38.86,K,D*0C
$GPGGA,152801.000,4135.3005,N,08416.6379,W,2,10,0.99,10196.4,M,0000,0000*59
$GPGGA,152804.000,4135.3205,N,08416.6361,W,2,10,0.99,10207.6,M,0000,0000*59
$GPGGA,152904.000,4135.6156,N,08416.6269,W,2,10,0.99,10565.6,M,1.82,0.99,1.53*0
$GPGGA,152930.000,4135.6984,N,08416.6224,W,2,10,0.98,10683.8,M,5,310317,,,D*49
$GPGGA,153010.000,4135.8496,N,08416.5732,W,2,10,0.98,10906.8,M,0*7C
$GPGGA,153107.000,4136.2076,N,08416.5503,W,2,10,0.98,11155.9,M,0.73,K,D*37
$GPGGA,153114.000,4136.2333,N,08416.5314,W,2,10,0.98,11190.2,M,1,0.98,1.52*0C
$GPGGA,153237.000,4136.7199,N,08416.2579,W,2,10,0.97,11547.8,M,1,K,D*0F
$GPGGA,153240.000,4136.7340,N,08416.2440,W,2,10,0.97,11560.1,M,1,K,D*0F
$GPGGA,153251.000,4136.7892,N,08416.2048,W,2,10,0.97,11601.0,M,,310317,,,D*76
$GPGGA,153307.000,4136.8681,N,08416.1243,W,2,10,0.97,11694.5,M,9,N,26.10,K,D*0A
$GPGGA,153327.000,4136.9052,N,08416.0337,W,2,10,0.97,11773.8,M,.19,K,D*0F
$GPGGA,153347.000,4136.9666,N,08415.9499,W,2,10,0.97,11843.9,M,,K,D*02
$GPGGA,153437.000,4137.1742,N,08415.7142,W,2,10,0.97,12034.3,M,4.67,K,D*00
$GPGGA,153451.000,4137.2460,N,08415.6555,W,2,10,0.96,12093.1,M,0317,,,D*76
$GPGGA,153503.000,4137.3007,N,08415.5965,W,2,10,0.96,12146.1,M,D*0F
$GPGGA,153523.000,4137.3996,N,08415.4405,W,2,10,0.96,12246.7,M,8.31,K,D*01
$GPGGA,153647.000,4137.6261,N,08414.6155,W,2,10,0.96,12594.8,M,9,K,D*0D
$GPGGA,153800.000,4137.8049,N,08414.0040,W,2,12,0.76,12893.6,M,N,40.10,K,D*0F
$GPGGA,153810.000,4137.8451,N,08413.9246,W,2,12,0.76,12928.6,M,8,N,53.70,K,D*02
$GPGGA,153814.000,4137.8631,N,08413.8976,W,2,12,0.76,12942.4,M,,1.00*0C
$GPGGA,153830.000,4137.9292,N,08413.7693,W,2,12,0.76,12998.7,M,D*06
$GPGGA,153914.000,4138.1274,N,08413.3354,W,2,12,0.76,13160.4,M,6,13153.8,M,-33.*
$GPGGA,153924.000,4138.1704,N,08413.2298,W,2,12,0.76,13194.8,M,A,3,31,29,32,25,*
$GPGGA,153934.000,4138.2151,N,08413.1301,W,2,12,0.76,13226.5,M,GA,153932.000,41*
$GPGGA,153940.000,4138.2396,N,08413.0711,W,2,12,0.76,13248.7,M,*73
$GPGGA,153954.000,4138.2932,N,08412.9333,W,2,12,0.76,13300.0,M,08412.9515,W,2,1*
$GPGGA,154010.000,4138.3781,N,08412.7566,W,2,12,0.76,13379.5,M,A,4138.3544,N,08*
$GPGGA,154014.000,4138.3961,N,08412.7055,W,2,12,0.76,13397.1,M,29,32,25,10,23,2*
$GPGGA,154024.000,4138.4448,N,08412.5826,W,2,12,0.76,13435.7,M,,A,3,31,29,32,25*
$GPGGA,154037.000,4138.4963,N,08412.4204,W,2,120.25,T,,M,34.46,*
$GPGGA,154040.000,4138.5078,N,08412.3857,W,2,12,0.76,13493.3,M,0.25,T,,M,34.46,*
$GPGGA,154047.000,4138.5372,N,08412.3057,W,2,12,0.76,13517.4,M,88,N,62.77,K,D*07
$GPGGA,154237.000,4138.7618,N,08411.1001,W,2,12,0.76,13924.5,M,1,N,49.49,K,D*0E
$GPGGA,154241.000,4138.7621,N,08411.0567,W,2,12,0.76,13939.4,M,,D*72
$GPGGA,154247.000,4138.7722,N,08410.9998,W,2,12,0.76,13962.5,M,,D*72
$GPGGA,154250.000,4138.7746,N,08410.9664,W,2,12,0.76,13972.8,M,,D*72
$GPGGA,154320.000,4138.8045,N,08410.6769,W,2,12,0.76,14085.4,M,12,310317,,,D*7E
$GPGGA,154321.000,4138.8052,N,08410.6663,W,2,12,0.76,14089.0,M,,D*73
$GPGGA,154327.000,4138.8133,N,08410.6096,W,2,12,0.76,14111.2,M,,N,40.84,K,D*04
$GPGGA,154340.000,4138.8305,N,08410.4821,W,2,12,0.76,14165.3,M,,,D*77
$GPGGA,154510.000,4139.0789,N,08409.7337,W,2,12,0.75,14559.9,M,49,K,D*00
$GPGGA,154547.000,4139.1587,N,08409.3390,W,2,12,0.75,14718.3,M,139.1538,N,08409*
$GPGGA,154601.000,4139.1841,N,08409.1841,W,2,12,0.75,14772.7,M,16,14,01,1.26,0.*
$GPGGA,154611.000,4139.2056,N,08409.0757,W,2,12,0.75,14812.5,M,,01,1.26,0.75,1.*
$GPGGA,154621.000,4139.2285,N,08408.9764,W,2,12,0.75,14852.0,M,000,A,4139.2313,*
$GPGGA,154630.000,4139.2513,N,08408.8836,W,2,12,0.75,14886.2,M,8.22,N,52.28,K,D*062
$GPGGA,154637.000,4139.2674,N,08408.8150,W,2,12,0.75,14912.9,M,M,-33.7,M,0000,0*062
$GPGGA,154640.000,4139.2755,N,08408.7866,W,2,12,0.75,14925.5,M,M,-33.7,M,0000,0*062
$GPGGA,154643.000,4139.2803,N,08408.7534,W,2,12,0.75,14937.2,M,M,-33.7,M,0000,0*062
$GPGGA,154646.000,4139.2884,N,08408.7277,W,2,12,0.75,14948.0,M,,44.87,K,D*08
$GPGGA,154653.000,4139.3131,N,08408.6716,W,2,12,0.75,14980.5,M,0,4139.2942,N,08*062
$GPGGA,154703.000,4139.3352,N,08408.5971,W,2,12,0.75,15032.4,M,3,N,08408.6345,W*062
$GPGGA,154706.000,4139.3432,N,08408.5736,W,2,12,0.75,15049.8,M,3,N,08408.6345,W*062
$GPGGA,154710.000,4139.3520,N,08408.5319,W,2,12,0.75,15ݹbŹ&33.7,M,0000,0000*062
$GPGGA,154716.000,4139.3663,N,08408.4800,W,2,12,0.75,15107.0,M,33.7,M,0000,0000*062
$GPGGA,154719.000,4139.3773,N,08408.4616,W,2,12,0.75,15123.4,M,9,N,37.23,K,D*0B
$GPGGA,154756.000,4139.5814,N,08408.1181,W,2,12,0.75,15269.6,M,6,0.75,1.01*0E
$GPGGA,154944.000,4139.9391,N,08406.9035,W,2,12,0.75,15675.6,M,,1.26,0.75,1.01*4
$GPGGA,155000.000,4139.9628,N,08406.7461,W,2,12,0.75,15738.0,M,8.68,K,D*02
$GPGGA,155110.000,4140.0795,N,08406.0191,W,2,12,0.75,16028.8,M,3.84,N,62.71,K,D*
$GPGGA,155120.000,4140.1027,N,08405.9031,W,2,171.61,T,,M,34.87*
$GPGGA,155130.000,4140.1239,N,08405.7825,W,2,12,0.75,16115.4,M,D*05
$GPGGA,155137.000,4140.1395,N,08405.6884,W,2,11,0.81,16144.9,M,000,0000*55
$GPGGA,155141.000,4140.1515,N,08405.6419,W,2,11,0.81,16160.9,M,0.1542,N,08405.6*
$GPGGA,155151.000,4140.1703,N,08405.5193,W,2,11,0.81,16204.2,M,$GPRMC,155152.00*
$GPGGA,155221.000,4140.1962,N,08405.1777,W,2,11,0.81,16322.6,M,23,22,26,03,16,1*
$GPGGA,155238.000,4140.2157,N,08404.9917,W,2,11,0.80,16386.9,M,1,1.08*0F
$GPGGA,155317.000,4140.2869,N,08404.6067,W,2,11,0.81,16534.1,M,.81,1.09*0E
$GPGGA,155320.000,4140.2957,N,08404.5799,W,2,11,0.81,16545.4,M,.81,1.09*0E
$GPGGA,155337.000,4140.3245,N,08404.4267,W,2,11,0.81,16617.2,M,,K,D*07
$GPGGA,155410.000,4140.3043,N,08404.1587,W,2,11,0.80,16752.3,M,,D*3E
$GPGGA,155440.000,4140.2827,N,08403.9680,W,2,11,0.80,16883.9,M,,,,D*70
$GPGGA,155447.000,4140.2809,N,08403.9238,W,2,11,0.80,16919.2,M,81,1.09*0D
$GPGGA,155453.000,4140.2858,N,08403.8814,W,2,11,0.80,16948.2,M,81,1.09*0D
$GPGGA,155526.000,4140.3061,N,08403.6504,W,2,11,0.80,17091.3,M,,310317,,,D*79
$GPGGA,155529.000,4140.3099,N,08403.6309,W,2,11,0.80,17101.0,M,,310317,,,D*79
$GPGGA,155612.000,4140.3521,N,08403.2056,W,2,11,0.81,17284.5,M,6.66,K,D*05
$GPGGA,155615.000,4140.3537,N,08403.1735,W,2,11,0.80,17299.2,M,6.66,K,D*05
$GPGGA,155645.000,4140.3253,N,08402.8751,W,2,11,0.80,17414.8,M,0000,0000*56
$GPGGA,155649.000,4140.3244,N,08402.8315,W,2,11,0.80,17430.5,M,D*47
$GPGGA,155726.000,4140.2758,N,08402.4404,W,2,11,0.80,17565.7,M,7,,,D*76
$GPGGA,155745.000,4140.2654,N,08402.2683,W,2,11,0.81,17640.5,M,K,D*00
$GPGGA,155856.000,4140.3240,N,08401.9093,W,2,11,0.81,17947.0,M,,1.11*05
$GPGGA,155859.000,4140.3271,N,08401.9056,W,2,11,0.81,17960.1,M,,1.11*05
$GPGGA,155942.000,4140.3709,N,08401.8302,W,2,11,0.80,18134.1,M,0,K,D*07
$GPGGA,155946.000,4140.3742,N,08401.8163,W,2,11,0.81,18150.9,M,.81,1.11*05
$GPGGA,155952.000,4140.3818,N,08401.8084,W,2,11,0.81,18173.2,M,K,D*31
$GPGGA,155955.000,4140.3836,N,08401.8026,W,2,11,0.81,18187.1,M,K,D*31
$GPGGA,160129.000,4140.4905,N,08401.4887,W,2,11,0.81,18604.6,M,,1.37,0.81,1.11*5
$GPGGA,160135.000,4140.4993,N,08401.4594,W,2,11,0.81,18630.4,M,10,01,160,34*4B
$GPGGA,160153.000,4140.4976,N,08401.3852,W,2,11,0.81,18709.7,M,,310317,,,D*78
$GPGGA,160159.000,4140.4982,N,08401.3587,W,2,11,0.81,18734.7,M,00*5E
$GPGGA,160353.000,4140.5324,N,08400.9575,W,2,11,0.81,19224.5,M,,0.81,1.12*09
$GPGGA,160405.000,4140.5256,N,08400.9297,W,2,11,0.81,19273.4,M,.11,K,D*35
$GPGGA,160459.000,4140.5377,N,08400.8589,W,2,11,0.81,19511.5,M,0,0000*50
$GPGGA,160539.000,4140.6452,N,08400.8458,W,2,11,0.81,19670.0,M,7,M,0000,0000*5D
$GPGGA,160602.000,4140.7026,N,08400.8308,W,2,11,0.81,19765.3,M,00*51
$GPGGA,160605.000,4140.7100,N,08400.8280,W,2,11,0.81,19777.2,M,00*51
$GPGGA,160645.000,4140.7519,N,08400.8016,W,2,11,0.81,19945.1,M,,,D*72
$GPGGA,160655.000,4140.7679,N,08400.8088,W,2,11,0.81,19986.2,M,*03
$GPGGA,160753.000,4140.8778,N,08400.7558,W,2,11,0.81,20243.9,M,06,K,D*31
$GPGGA,160755.000,4140.8784,N,08400.7518,W,2,11,0.81,20253.2,M,06,K,D*31
$GPGGA,160759.000,4140.8835,N,08400.7497,W,2,11,0.81,20271.9,M,06,K,D*31
$GPGGA,160855.000,4140.9011,N,08400.7627,W,2,11,0.81,20526.7,M,K,D*36
$GPGGA,160913.000,4140.9292,N,08400.7748,W,2,11,0.81,20611.7,M,.39,0.81,1.13*092
$GPGGA,160922.000,4140.9466,N,08400.7577,W,2,11,0.81,20655.3,M,0000,0000*5E
$GPGGA,161005.000,4141.0467,N,08400.5947,W,2,11,0.81,20850.6,M,2,310317,,,D*77
$GPGGA,161056.000,4141.0404,N,08400.4788,W,2,11,0.81,21070.9,M,0,0000*59
$GPGGA,161102.000,4141.0344,N,08400.4714,W,2,11,0.81,21097.1,M,0,0000*59
$GPGGA,161106.000,4141.0207,N,08400.4650,W,2,11,0.81,21115.4,M,.13*09
$GPGGA,161116.000,4140.9972,N,08400.4573,W,2,11,0.81,21159.6,M,,1.13*09
$GPGGA,161119.000,4140.9849,N,08400.4536,W,2,11,0.81,21171.5,M,,1.13*09
$GPGGA,161123.000,4140.9766,N,08400.4465,W,2,11,0.81,21188.6,M,31,310317,,,D*732
$GPGGA,161155.000,4140.9296,N,08400.3966,W,2,11,0.81,21328.1,M,,K,D*0D
$GPGGA,161202.000,4140.9256,N,08400.3923,W,2,11,0.81,21357.6,M,42,K,D*38
$GPGGA,161412.000,4140.8656,N,08400.0817,W,2,10,0.88,21968.0,M,.40,0.81,1.13*072
$GPGGA,161432.000,4140.8444,N,08400.0137,W,2,10,0.89,22058.2,M,,N,18.01,K,D*03
$GPGGA,161503.000,4140.7834,N,08359.9243,W,2,10,0.89,22203.8,M,17,,,D*4D
$GPGGA,161535.000,4140.7083,N,08359.8807,W,2,10,0.89,22354.0,M,7,K,D*0D
$GPGGA,161552.000,4140.6784,N,08359.8763,W,2,10,0.89,22434.5,M,.62,K,D*0A
$GPGGA,161555.000,4140.6758,N,08359.8757,W,2,10,0.86,22448.5,M,.62,K,D*0A
$GPGGA,161753.000,4140.5750,N,08359.7482,W,2,10,0.90,22990.5,M,310317,,,D*4D
$GPGGA,161813.000,4140.5567,N,08359.7075,W,2,10,0.87,23080.4,M,,0.83*0E
$GPGGA,161819.000,4140.5491,N,08359.7019,W,2,10,0.90,23105.5,M,,0.83*0E
$GPGGA,161909.000,4140.5286,N,08359.7201,W,2,10,0.87,23325.7,M,6.47,310317,,,D*4
$GPGGA,161949.000,4140.4957,N,08359.7421,W,2,10,0.91,23511.9,M,00,0000*56
$GPGGA,162013.000,4140.4599,N,08359.7091,W,2,10,0.91,23625.0,M,,,,D*4E
$GPGGA,162023.000,4140.4539,N,08359.7005,W,2,10,0.87,23670.4,M,.83*0E
$GPGGA,162043.000,4140.4357,N,08359.6985,W,2,10,0.87,23764.7,M,,310317,,,D*74
$GPGGA,162123.000,4140.4031,N,08359.7537,W,2,10,0.91,23960.2,M,2*06
$GPGGA,162205.000,4140.3652,N,08359.7761,W,2,10,0.87,24160.3,M,.79,K,D*31
$GPGGA,162215.000,4140.3734,N,08359.7877,W,2,10,0.91,24207.2,M,D*7D
$GPGGA,162253.000,4140.4155,N,08359.8583,W,2,10,0.92,24388.0,M,3*0A
$GPGGA,162352.000,4140.5053,N,08359.9434,W,2,10,0.92,24667.4,M,1,K,D*04
$GPGGA,162413.000,4140.5278,N,08359.9530,W,2,10,0.87,24765.6,M,0.87,0.84*08
$GPGGA,162419.000,4140.5299,N,08359.9521,W,2,10,0.92,24793.3,M,0.87,0.84*08
$GPGGA,162435.000,4140.5471,N,08359.9587,W,2,10,0.92,24867.3,M,,N,17.40,K,D*07
$GPGGA,162605.000,4140.8397,N,08359.9935,W,2,10,0.93,25307.0,M,N,24.87,K,D*35
$GPGGA,162805.000,4141.1105,N,08400.0430,W,2,10,0.94,25898.9,M,K,D*0B
$GPGGA,162842.000,4141.1727,N,08359.9880,W,2,10,0.94,26076.1,M,5,N,10.65,K,D*39
$GPGGA,162853.000,4141.2054,N,08359.9724,W,2,10,0.94,26130.5,M,317,,,D*4E
$GPGGA,162919.000,4141.2919,N,08359.9213,W,2,10,0.94,26255.7,M,0000,0000*58
$GPGGA,162932.000,4141.3363,N,08359.8751,W,2,10,0.94,26318.3,M,*0A
$GPGGA,163013.000,4141.3625,N,08359.7140,W,2,10,0.95,26511.6,M,,,,D*7D
$GPGGA,163042.000,4141.3685,N,08359.6025,W,2,10,0.95,26641.4,M,95,1.62*01
$GPGGA,163049.000,4141.3715,N,08359.5811,W,2,10,0.95,26674.7,M,3.7,M,0000,0000*.
$GPGGA,163055.000,4141.3666,N,08359.5556,W,2,10,0.95,26701.8,M,3,K,D*02
$GPGGA,163319.000,4141.3652,N,08358.9361,W,2,10,0.96,27392.2,M,6,1.64*0D
$GPGGA,163323.000,4141.3564,N,08358.9214,W,2,10,0.96,27412.8,M,.96,1.64*0D
$GPGGA,163342.000,4141.3441,N,08358.8769,W,2,10,0.88,27506.9,M,82,N,5.23,K,D*37
$GPGGA,163423.000,4141.3508,N,08358.8725,W,2,10,0.88,27690.7,M,,,D*7D
$GPGGA,163429.000,4141.3537,N,08358.8747,W,2,10,0.96,27718.5,M,,,D*7D
$GPGGA,163456.000,4141.3951,N,08358.9141,W,2,10,0.96,27845.9,M,0.96,1.65*0D
$GPGGA,163459.000,4141.4042,N,08358.9148,W,2,10,0.96,27860.8,M,0.96,1.65*0D
$GPGGA,163513.000,4141.4354,N,08358.9123,W,2,10,0.96,27924.5,M,0317,,,D*7A
$GPGGA,163602.000,4141.5122,N,08358.8420,W,2,10,0.96,28167.4,M,,11.59,K,D*04
$GPGGA,163613.000,4141.5246,N,08358.8380,W,2,10,0.96,28223.3,M,00,0000*57
$GPGGA,163623.000,4141.5451,N,08358.8348,W,2,10,0.96,28274.5,M,*0D
$GPGGA,163629.000,4141.5622,N,08358.8271,W,2,10,0.96,28303.5,M,*0D
$GPGGA,163633.000,4141.5779,N,08358.8254,W,2,10,0.96,28323.0,M,,,D*75
$GPGGA,163643.000,4141.6116,N,08358.8063,W,2,10,0.97,28369.7,M,,,,D*76
$GPGGA,163653.000,4141.6573,N,08358.7835,W,2,10,0.97,28417.3,M,66*0C
$GPGGA,163709.000,4141.7118,N,08358.7437,W,2,10,0.97,28496.9,M,0,0000*55
$GPGGA,163712.000,4141.7187,N,08358.7369,W,2,10,0.97,28512.8,M,,19.91,K,D*00
$GPGGA,163753.000,4141.8576,N,08358.6712,W,2,10,0.97,28709.4,M,97,1.66*0C
$GPGGA,163823.000,4142.0273,N,08358.6039,W,2,10,0.97,28849.4,M,0*51
$GPGGA,163845.000,4142.1182,N,08358.5287,W,2,10,0.97,28953.4,M,7,N,27.18,K,D*07
$GPGGA,163852.000,4142.1517,N,08358.5079,W,2,10,0.97,28982.1,M,71,K,D*04
$GPGGA,163922.000,4142.2735,N,08358.4359,W,2,10,0.97,29119.6,M,*07
$GPGGA,163942.000,4142.3684,N,08358.3950,W,2,10,0.97,29206.3,M,41.11,K,D*02
$GPGGA,164116.000,4142.7242,N,08357.8251,W,2,10,0.97,29611.1,M,,0000,0000*5C
$GPGGA,164119.000,4142.7273,N,08357.8072,W,2,10,0.97,29625.8,M,,0000,0000*5C
$GPGGA,164122.000,4142.7307,N,08357.7867,W,2,10,0.97,29639.3,M,,0000,0000*5C
$GPGGA,164235.000,4142.7737,N,08357.5922,W,2,05,1.61,29949.5,M,10317,,,E*42
$GPGGA,170212.000,4146.1288,N,08352.9422,W,2,09,0.99,5361.9,M,-*31
$GPGGA,170223.000,4146.1249,N,08352.9292,W,2,09,0.99,5248.4,M,-.28,310317,,,D*7
$GPGGA,170229.000,4146.1322,N,08352.9353,W,2,09,0.99,5185.3,M,-.28,310317,,,D*7
$GPGGA,170239.000,4146.1388,N,08352.9219,W,2,09,0.99,5080.6,M,-31,310317,,,D*77
$GPGGA,170249.000,4146.1345,N,08352.9484,W,2,09,0.99,4977.4,M,-M,0000,0000*6F
$GPGGA,170259.000,4146.1453,N,08352.9480,W,2,09,0.99,4875.5,M,-0*6F
$GPGGA,170329.000,4146.2313,N,08352.9377,W,2,09,0.99,4589.9,M,-*02
$GPGGA,170343.000,4146.2785,N,08352.9278,W,2,09,0.99,4461.7,M,-10317,,,D*7C
$GPGGA,170419.000,4146.2827,N,08352.8366,W,2,09,0.99,4136.8,M,-000,0000*64
$GPGGA,170529.000,4146.3167,N,08352.7341,W,2,09,0.98,3532.7,M,-00,0000*69
$GPGGA,170553.000,4146.3506,N,08352.7769,W,2,09,0.98,3337.2,M,-310317,,,D*70
$GPGGA,170603.000,4146.3741,N,08352.7509,W,2,09,0.98,3255.3,M,-317,,,D*4D
$GPGGA,170715.000,4146.4393,N,08352.7545,W,2,09,0.98,2671.7,M,-000*60
$GPGGA,170752.000,4146.4954,N,08352.6598,W,2,09,0.98,2382.2,M,-D*0D
$GPGGA,170805.000,4146.5216,N,08352.6276,W,2,09,0.98,2277.3,M,-K,D*32
$GPGGA,170939.000,4146.5991,N,08352.3672,W,2,09,0.98,1556.9,M,-000,0000*64
$GPGGA,171113.000,4146.7536,N,08352.1219,W,2,09,0.98,867.0,M,-359*0C
$GPGGA,171152.000,4146.7512,N,08352.1582,W,2,09,0.98,594.8,M,-3K,D*37
$GPGGA,171153.000,4146.7486,N,08352.1622,W,2,09,0.98,588.2,M,-3*4E
$GPGGA,171203.000,4146.7297,N,08352.1971,W,2,09,0.98,518.8,M,-31.58*0C
$GPGGA,171209.000,4146.7169,N,08352.2107,W,2,09,0.98,474.8,M,-31.58*0C
$GPGGA,171223.000,4146.6822,N,08352.2053,W,2,09,0.98,377.8,M,-35,310317,,,D*45
$GPGGA,171302.000,4146.5700,N,08352.2095,W,2,10,0.85,198.4,M,-301,K,D*33
$GPGGA,171305.000,4146.5700,N,08352.2095,W,2,10,0.85,198.4,M,-3,D*32
$GPGGA,171309.000,4146.5700,N,08352.2094,W,2,10,0.85,198.4,M,-3M,0000,0000*54
$GPGGA,171312.000,4146.5700,N,08352.2094,W,2,10,0.85,198.3,M,-300,K,D*32
$GPGGA,171559.000,4146.5700,N,08352.2092,W,2,10,0.85,198.9,M,-3000,0000*5D
$GPGGA,171719.000,4146.5700,N,08352.2091,W,2,11,0.77,199.2,M,-3,0000,0000*5E
$GPGGA,171726.000,4146.5700,N,08352.2091,W,2,11,0.77,199.2,M,-3,M,0000,0000*5D
$GPGGA,171729.000,4146.5700,N,08352.2091,W,2,11,0.77,199.2,M,-3,M,0000,0000*5D
$GPGGA,171849.000,4146.5701,N,08352.2090,W,2,11,0.77,199.4,M,-3000,0000*52
$GPGGA,171913.000,4146.5701,N,08352.2090,W,2,11,0.77,199.5,M,-3,0.77,1.04*05
$GPGGA,172009.000,4146.5701,N,08352.2089,W,2,10,0.80,199.7,M,-30*5F
$GPGGA,172013.000,4146.5701,N,08352.2089,W,2,10,0.80,199.7,M,-317,,,D*7E
$GPGGA,172019.000,4146.5701,N,08352.2089,W,2,10,0.80,199.7,M,-317,,,D*7E
$GPGGA,172059.000,4146.5701,N,08352.2088,W,2,10,0.80,199.9,M,-3,M,0000,0000*55
$GPGGA,172103.000,4146.5701,N,08352.2088,W,2,10,0.80,199.9,M,-310317,,,D*7C
$GPGGA,172106.000,4146.5701,N,08352.2088,W,2,10,0.80,199.9,M,-310317,,,D*7C
$GPGGA,172109.000,4146.5701,N,08352.2088,W,2,10,0.80,199.9,M,-310317,,,D*7C
$GPGGA,172255.000,4146.5701,N,08352.2087,W,2,09,0.96,200.3,M,-303,K,D*33
$GPGGA,172422.000,4146.5701,N,08352.2086,W,2,10,0.80,200.6,M,-3,K,D*32
$GPGGA,172433.000,4146.5701,N,08352.2086,W,2,10,0.80,200.7,M,-3*74
$GPGGA,172439.000,4146.5701,N,08352.2086,W,2,10,0.80,200.7,M,-3*74
$GPGGA,172513.000,4146.5701,N,08352.2085,W,2,10,0.80,200.8,M,-3310317,,,D*75
$GPGGA,172543.000,4146.5702,N,08352.2085,W,2,09,0.94,200.9,M,-3,D*73
$GPGGA,172603.000,4146.5702,N,08352.2085,W,2,09,0.94,201.0,M,-30317,,,D*74
$GPGGA,172609.000,4146.5702,N,08352.2085,W,2,09,0.94,201.1,M,-30317,,,D*74
$GPGGA,172619.000,4146.5702,N,08352.2085,W,2,09,0.94,201.1,M,-30,0000*5E
$GPGGA,172713.000,4146.5702,N,08352.2084,W,2,09,0.93,201.3,M,-31,0.93,1.44*0A
$GPGGA,172823.000,4146.5702,N,08352.2083,W,2,09,0.92,201.6,M,-3.43*0D
$GPGGA,172913.000,4146.5702,N,08352.2083,W,2,10,0.80,201.8,M,-380,1.18*04
$GPGGA,173053.000,4146.5702,N,08352.2082,W,2,10,0.80,202.2,M,-3,1.18*05
$GPGGA,173202.000,4146.5702,N,08352.2081,W,2,10,0.80,202.4,M,-3,K,D*31
$GPGGA,173252.000,4146.5702,N,08352.2081,W,2,10,0.80,202.6,M,-2,N,0.04,K,D*34
$GPGGA,173313.000,4146.5702,N,08352.2081,W,2,10,0.80,202.7,M,-30,310317,,,D*76
$GPGGA,173352.000,4146.5702,N,08352.2081,W,2,10,0.80,202.9,M,-3K,D*33
$GPGGA,173433.000,4146.5632,N,08352.2279,W,2,10,0.80,205.4,M,-3D*76
$GPGGA,173523.000,4146.5642,N,08352.2579,W,2,10,0.80,210.4,M,-3.81*06
$GPGGA,173705.000,4146.5612,N,08352.3037,W,2,10,0.79,216.4,M,-3N,0.70,K,D*3A
$GPGGA,173759.000,4146.5605,N,08352.3051,W,2,10,0.80,216.1,M,-3,M,0000,0000*5A
$GPGGA,173813.000,4146.5548,N,08352.3046,W,2,10,0.79,215.0,M,-30*56
$GPGGA,173823.000,4146.5537,N,08352.3038,W,2,10,0.80,214.0,M,-3,1.21*08
$GPGGA,174013.000,4146.5477,N,08352.3055,W,2,10,0.79,212.5,M,-3,310317,,,D*74
$GPGGA,174053.000,4146.5157,N,08352.3053,W,2,10,0.79,216.2,M,-3.79,0.77*0C
$GPGGA,174223.000,4146.4478,N,08352.3006,W,2,10,0.79,214.8,M,-377*0C
$GPGGA,174319.000,4146.4060,N,08352.2966,W,2,10,0.79,218.4,M,-39,0.77*0C
$GPGGA,174322.000,4146.4045,N,08352.2963,W,2,10,0.79,218.7,M,-39,0.77*0C
$GPGGA,174712.000,4146.3846,N,08352.4169,W,2,10,0.79,210.7,M,-311,0.79,0.77*0C
