$GPGSA,A,1,,,,,,,,,,,,,,,*1E
$GPGSV,2,1,07,22,,,4036.101,,,,,0,00,
1.39,2.88,3.92,2.48,2.56,3.03,20407
$GPGGA,210038.101,,,,,0,00,,,M,,M,,*70
$GPGSA,A,1,,,,,,,,,,,,,036.101,,,,,0,00,
1.39,2.88,3.92,2.46,2.57,2.94,21535
$GPGGA,210039.101,,,,,0,00,,,M,,M,,*71
$GPGSA,A,1,,,,,,,,,,,,,036.101,,,,,0,00,
1.40,2.88,3.92,2.43,2.60,3.05,22665
$GPGGA,210040.101,,,,,0,00,,,M,,M,,*7F
$GPGSA,A,1,,,,,,,,,,,,,036.101,,,,,0,00,
1.39,2.87,3.92,2.42,2.52,2.83,23793
$GPGGA,210041.101,,,,,0,00,,,M,,M,,*7E
$GPGSA,A,1,,,,,,,,,,,,,036.101,,,,,0,00,
1.39,2.87,3.91,2.51,2.52,3.06,24922
$GPGGA,210042.101,,,,,0,00,,,M,,M,,*7D
$GPGSA,A,1,,,,,,,,,,,,,036.101,,,,,0,00,
1.42,2.87,3.92,2.43,2.51,2.89,26050
$GPGGA,210043.101,,,,,0,00,,,M,,M,,*7C
$GPGSA,A,1,,,,,,,,,,,,,036.101,,,,,0,00,
1.42,2.87,3.91,2.40,2.60,2.92,27219
$GPGGA,210044.101,,,,,0,00,,,M,,M,,*7B
$GPGSA,A,1,,,,,,,,,,,,,036.101,,,,,0,00,
1.44,2.86,3.92,2.47,2.53,2.93,28374
$GPGGA,210046.101,,,,,0,00,,,M,,M,,*79
$GPGSA,A,1,,,,,,,,,,,,,036.101,,,,,0,00,
1.43,2.85,3.92,2.46,2.60,2.91,29502
$GPGGA,210047.101,,,,,0,00,,,M,,M,,*78
$GPGSA,A,1,,,,,,,,,,,,,036.101,,,,,0,00,
1.44,2.85,3.92,2.42,2.62,2.97,30631
$GPGGA,210048.090,,,,,0,00,,,M,,M,,*7E
$GPGSA,A,1,,,,,,,,,,,,,036.101,,,,,0,00,
1.48,2.85,3.91,2.44,2.55,2.88,31760
$GPGGA,210049.309,,,,,0,00,,,M,,M,,*7C
$GPGSA,A,1,,,,,,,,,,,,,036.101,,,,,0,00,
1.47,2.84,3.92,2.46,2.48,3.08,32888
$GPGGA,210050.309,,,,,0,00,,,M,,M,,*74
$GPGSA,A,1,,,,,,,,,,,,,036.101,,,,,0,00,
1.47,2.84,3.92,2.40,2.52,2.89,34017
$GPGGA,210051.309,,,,,0,00,,,M,,M,,*75
$GPGSA,A,1,,,,,,,,,,,,,036.101,,,,,0,00,
1.50,2.83,3.91,2.45,2.53,3.10,35146
$GPGGA,210052.309,,,,,0,00,,,M,,M,,*76
$GPGSA,A,1,,,,,,,,,,,,,036.101,,,,,0,00,
1.50,2.83,3.91,2.45,2.53,2.91,36314
$GPGGA,210053.309,,,,,0,00,,,M,,M,,*77
$GPGSA,A,1,,,,,,,,,,,,,036.101,,,,,0,00,
1.51,2.83,3.91,2.42,2.51,2.95,37443
$GPGGA,210055.090,,,,,0,00,,,M,,M,,*72
$GPGSA,A,1,,,,,,,,,,,,,036.101,,,,,0,00,
1.52,2.82,3.91,2.38,2.52,2.98,38572
$GPGGA,210056.090,,,,,0,00,,,M,,M,,*71
$GPGSA,A,1,,,,,,,,,,,,,036.101,,,,,0,00,
1.52,2.82,3.91,2.40,2.54,2.85,39700
$GPGGA,210057.090,,,,,0,00,,,M,,M,,*70
$GPGSA,A,1,,,,,,,,,,,,,036.101,,,,,0,00,
1.52,2.82,3.91,2.42,2.52,2.92,40829
$GPGGA,210058.090,,,,,0,00,,,M,,M,,*7F
$GPGSA,A,1,,,,,,,,,,,,,036.101,,,,,0,00,
1.54,2.82,3.91,2.38,2.58,2.90,41986
$GPGGA,210059.090,,,,,0,00,,,M,,M,,*7E
1.62,2.81,3.91,2.42,2.56,2.89,57949
$GPGGA,210115.310,,,,,0,00,,,M,,M,,*7C

1.63,2.81,3.91,2.41,2.52,2.89,59118
$GPGGA,210116.310,,,,,0,00,,,M,,M,,*7F
$GPGSA,A,1,,,,,,,,,,,,,0.00,N,0.00,K,N*32

1.64,2.81,3.91,2.42,2.65,3.03,60274
$GPGGA,210118.101,,,,,0,00,,,M,,M,,*73
$GPGSA,A,1,,,,,,,,,,,,,0.00,N,0.00,K,N*32

1.63,2.81,3.91,2.46,2.51,2.97,61406
$GPGGA,210119.101,,,,,0,00,,,M,,M,,*72
$GPGSA,A,1,,,,,,,,,,,,,0.00,N,0.00,K,N*32

1.65,2.81,3.91,2.52,2.43,3.01,62537
$GPGGA,210120.101,,,,,0,00,,,M,,M,,*78
$GPGSA,A,1,,,,,,,,,,,,,0.00,N,0.00,K,N*32

1.66,2.81,3.91,2.40,2.54,2.92,63670
$GPGGA,210121.101,,,,,0,00,,,M,,M,,*79
$GPGSA,A,1,,,,,,,,,,,,,0.00,N,0.00,K,N*32

1.67,2.81,3.91,2.48,2.50,3.00,64813
$GPGGA,210122.101,,,,,0,00,,,M,,M,,*7A
$GPGSA,A,1,,,,,,,,,,,,,Hˆ:AMA00,K,N*32

1.68,2.81,3.91,2.47,2.42,3.10,65991
,1,,,,,,,,,,,,,,,*1E
$GPGSV,3,1,09,22,,,34,23,,,45,09,,,41,16,Hˆ:AMA00,K,N*32

1.67,2.81,3.91,2.39,2.57,2.90,67124
$GPGGA,210125.101,,,,,0,00,,,M,,M,,*7D
$GPGSA,A,1,,,,,,,,,,,,,Hˆ:AMA00,K,N*32

1.68,2.81,3.91,2.44,2.47,2.99,68255
$GPGGA,210126.101,,,,,0,00,,,M,,M,,*7E
$GPGSA,A,1,,,,,,,,,,,,,Hˆ:AMA00,K,N*32

1.69,2.81,3.91,2.34,2.44,3.03,69388
$GPGGA,210127.101,,,,,0,00,,,M,,M,,*7F
$GPGSA,A,1,,,,,,,,,,,,,Hˆ:AMA00,K,N*32

1.69,2.81,3.91,2.35,2.49,2.99,70519
$GPGGA,210128.101,,,,,0,00,,,M,,M,,*70
$GPGSA,A,1,,,,,,,,,,,,,Hˆ:AMA00,K,N*32

1.72,2.81,3.91,2.32,2.48,3.03,71651
$GPGGA,210129.101,,,,,0,00,,,M,,M,,*71
$GPGSA,A,1,,,,,,,,,,,,,Hˆ:AMA00,K,N*32

1.77,2.81,3.91,2.37,2.50,2.86,72783
$GPGGA,210130.086,,,,,0,00,,,M,,M,,*77
$GPGSA,A,1,,,,,,,,,,,,,Hˆ:AMA00,K,N*32

1.80,2.82,3.91,2.37,2.38,3.07,73915
$GPGGA,210131.305,,,,,0,00,,,M,,M,,*7E
$GPGSA,A,1,,,,,,,,,,,,,Hˆ:AMA00,K,N*32

1.78,2.82,3.91,2.40,2.55,2.91,75046
$GPGGA,210132.305,,,,,0,00,,,M,,M,,*7D
$GPGSA,A,1,,,,,,,,,,,,,Hˆ:AMA00,K,N*32

1.80,2.82,3.91,2.44,2.53,2.97,76217
$GPGGA,210133.305,,,,,0,00,,,M,,M,,*7C
$GPGSA,A,1,,,,,,,,,,,,,00,T,,M,0.00,N,*32

1.79,2.82,3.91,2.45,2.47,3.01,77387
0.00,K,N*32
$GPGGA,210135.305,,,,,0,00,,,M,,M,,*7A
$GPGSA,A,100,T,,M,0.00,N,*32

1.79,2.82,3.91,2.43,2.48,2.99,78520
$GPGGA,210136.086,,,,,0,00,,,M,,M,,*71
$GPGSA,A,1,,,,,,,,,,,,,00,T,,M,0.00,N,*32

1.77,2.82,3.91,2.48,2.50,2.96,79651
$GPGGA,210137.305,,,,,0,00,,,M,,M,,*78
$GPGSA,A,1,,,,,,,,,,,,,00,T,,M,0.00,N,*32

1.77,2.82,3.91,2.49,2.42,3.01,80784
$GPGGA,210138.305,,,,,0,00,,,M,,M,,*77
$GPGSA,A,1,,,,,,,,,,,,,00,T,,M,0.00,N,*32

1.78,2.81,3.91,2.42,2.50,2.99,81915
$GPGGA,210139.305,,,,,0,00,,,M,,M,,*76
$GPGSA,A,1,,,,,,,,,,,,,00,T,,M,0.00,N,*32

1.78,2.81,3.91,2.52,2.42,3.08,83047
$GPGGA,210140.305,,,,,0,00,,,M,,M,,*78
$GPGSA,A,1,,,,,,,,,,,,,00,T,,M,0.00,N,*32

1.78,2.81,3.91,2.46,2.55,2.89,84219
$GPGGA,210141.305,,,,,0,00,,,M,,M,,*79
$GPGSA,A,1,,,,,,,,,,,,,00,T,,M,0.00,N,*32

1.77,2.81,3.91,2.49,2.46,3.01,85351
$GPGGA,210143.314,,,,,0,00,,,M,,M,,*7B
$GPGSA,A,1,,,,,,,,,,,,,00,T,,M,0.00,N,*32

1.77,2.81,3.91,2.50,2.49,3.11,86483
$GPGGA,210144.314,,,,,0,00,,,M,,M,,*7C
$GPGSA,A,1,,,,,,,,,,,,,00,T,,M,0.00,N,*32

1.77,2.81,3.91,2.43,2.53,2.95,87615
$GPGGA,210145.314,,,,,0,00,,,M,,M,,*7D
$GPGSA,A,1,,,,,,,,,,,,,00,T,,M,0.00,N,*32

1.76,2.81,3.91,2.41,2.58,2.84,88747
$GPGGA,210146.314,,,,,0,00,,,M,,M,,*7E
$GPGSA,A,1,,,,,,,,,,,,,00,T,,M,0.00,N,*32

1.78,2.81,3.91,2.52,2.52,2.97,89915
$GPGGA,210147.314,,,,,0,00,,,M,,M,,*7F
$GPGSA,A,1,,,,,,,,,,,,,GPVTG,0.00,T,,M,0.

1.78,2.81,3.91,2.44,2.51,3.04,91121
00,N,0.00,K,N*32
$GPGGA,210148.286,,,,,0,00,,,M,,M,,*7A
$GPGS,,,46*7E
$GPGSV0.

1.78,2.81,3.91,2.40,2.61,2.88,92282
,3,3,09,31,,,42*74
$GPRMC,210149.286,V,,,,,0.00,0.00,160217,,,,,,46*7E
$GPGSV0.

1.78,2.81,3.91,2.44,2.57,3.12,93415
$GPGGA,210151.286,,,,,0,00,,,M,,M,,*72
$GPGSA,A,1,,,,,,,,,,,,,,,,46*7E
$GPGSV0.

1.76,2.81,3.91,2.51,2.54,2.83,94546
$GPGGA,210152.286,,,,,0,00,,,M,,M,,*71
$GPGSA,A,1,,,,,,,,,,,,,,,,46*7E
$GPGSV0.

1.76,2.80,3.91,2.39,2.60,2.95,95678
$GPGGA,210153.286,,,,,0,00,,,M,,M,,*70
$GPGSA,A,1,,,,,,,,,,,,,,,,46*7E
$GPGSV0.

1.77,2.80,3.91,2.39,2.53,2.87,96811
$GPGGA,210154.088,,,,,0,03,,,M,,M,,*78
$GPGSA,A,1,,,,,,,,,,,,,,,,46*7E
$GPGSV0.

1.77,2.80,3.91,2.43,2.59,3.08,97942
$GPGGA,210156.000,,,,,0,03,,,M,,M,,*7A
$GPGSA,A,1,,,,,,,,,,,,,,,,46*7E
$GPGSV0.

1.76,2.80,3.91,2.42,2.56,2.86,99074
$GPGGA,210157.000,4217.7023,N,08342.7970,W,1,03,4.05,184.0,M,-3,,,46*7E
$GPGSV0.

1.78,2.80,3.91,2.43,2.57,2.91,100206
$GPGGA,210158.000,4217.7025,N,08342.7954,W,1,03,4.05,184.0,M,-3,,,46*7E
$GPGSV0.

1.76,2.80,3.91,2.40,2.61,2.91,101339
$GPGGA,210159.000,4217.7032,N,08342.7936,W,1,03,4.05,184.0,M,-3,,,46*7E
$GPGSV0.

1.77,2.80,3.91,2.45,2.56,3.00,102472
$GPGGA,210200.000,4217.7037,N,08342.7918,W,1,03,4.05,184.0,M,-3,,,46*7E
$GPGSV0.

1.79,2.80,3.91,2.49,2.49,3.06,103626
A$‚’r‚DºdºäŠ	’ôÊtÅ	&'&LNL3,M,Í¹‚bÅbHˆ
Ô((&œ–9,16,26,,,,,,,,,2.9E
$GPGSV0.

1.79,2.80,3.91,2.37,2.49,2.92,104817
9,2.82,0.99*03
$GPRMC,210202.000,A,4217.6972,N,08342.7839,W,4.,,,,2.9E
$GPGSV0.

1.79,2.81,3.91,2.44,2.52,2.98,105974
$GPGGA,210204.000,4217.6965,N,08342.7807,W,1,04,2.82,194.0,M,-3,,,,2.9E
$GPGSV0.

1.79,2.81,3.91,2.46,2.49,3.04,107107
$GPGGA,210205.000,4217.6966,N,08342.7788,W,1,04,2.82,195.0,M,-3,,,,2.9E
$GPGSV0.

1.80,2.81,3.91,2.45,2.50,2.90,108240
$GPGGA,210206.000,4217.6966,N,08342.7769,W,1,04,2.82,196.7,M,-3,,,,2.9E
$GPGSV0.

1.81,2.81,3.91,2.42,2.63,3.07,109373
$GPGGA,210207.000,4217.6963,N,08342.7752,W,1,04,2.82,198.6,M,-3,,,,2.9E
$GPGSV0.

1.80,2.81,3.91,2.51,2.51,3.04,110510
$GPGGA,210208.000,4217.6963,N,08342.7742,W,1,04,2.82,199.9,M,-3bº±1,04,
$GPGSV0.

1.82,2.81,3.91,2.43,2.57,2.90,111717
2.82,201.8,M,-34.0,M,,*55
$GPGSA,A,3,23,09,16,26,,,,,,,,,2.99,bº±1,04,
$GPGSV0.

1.83,2.81,3.91,2.43,2.61,3.03,112849
$GPGGA,210211.000,4217.6979,N,08342.7697,W,1,04,2.83,204.9,M,-3bº±1,04,
$GPGSV0.

1.82,2.81,3.91,2.46,2.53,3.01,113982
$GPGGA,210212.000,4217.6987,N,08342.7684,W,1,04,2.82,205.8,M,-3bº±1,04,
$GPGSV0.

1.83,2.81,3.91,2.39,2.61,2.96,115116
$GPGGA,210213.000,4217.6992,N,08342.7672,W,1,04,2.82,206.7,M,-3bº±1,04,
$GPGSV0.

1.84,2.81,3.91,2.48,2.48,3.04,116248
$GPGGA,210214.000,4217.6999,N,08342.7659,W,1,04,2.83,208.2,M,-3bº±1,04,
$GPGSV0.

1.84,2.81,3.91,2.42,2.56,2.81,117382
$GPGGA,210215.000,4217.7004,N,08342.7644,W,1,04,2.82,209.3,M,-3bº±1,04,
$GPGSV0.

1.85,2.80,3.91,2.49,2.26,2.87,118543
$GPGGA,210216.000,4217.7006,N,08342.7627,W,1,04,2.82,210.4,M,-3)Êb’rÂšb‚rÊÊR‚’j0.

1.86,2.80,3.91,2.48,2.49,3.13,119726

$GPRMC,210217.000,A,4217.7007,N,08342.7610,W,5.20,96.88,160217)Êb’rÂšb‚rÊÊR‚’j0.

1.84,2.80,3.91,2.36,2.53,3.04,120884
$GPGGA,210219.000,4217.7009,N,08342.7571,W,1,04,2.82,213.1,M,-3)Êb’rÂšb‚rÊÊR‚’j0.

1.86,2.80,3.91,2.48,2.46,3.11,122016
$GPGGA,210220.000,4217.7014,N,08342.7551,W,1,04,2.82,214.1,M,-3)Êb’rÂšb‚rÊÊR‚’j0.

1.87,2.80,3.91,2.37,2.54,2.86,123150
$GPGGA,210221.000,4217.7018,N,08342.7530,W,1,04,2.83,215.1,M,-3)Êb’rÂšb‚rÊÊR‚’j0.

1.87,2.80,3.91,2.37,2.53,2.95,124282
$GPGGA,210222.000,4217.7023,N,08342.7511,W,1,04,2.83,215.9,M,-3)Êb’rÂšb‚rÊÊR‚’j0.

1.88,2.80,3.91,2.41,2.60,2.87,125418
$GPGGA,210223.000,4217.7030,N,08342.7492,W,1,04,2.83,216.8,M,-37,N,08342.7476,W,1

1.87,2.80,3.91,2.40,2.60,2.99,126631
,04,2.83,217.6,M,-34.0,M,,*50
$GPGSA,A,3,23,09,16,26,,,,,,,,,27,N,08342.7476,W,1

1.89,2.79,3.91,2.35,2.50,2.95,127765
$GPGGA,210226.000,4217.7049,N,08342.7442,W,1,04,2.83,219.5,M,-37,N,08342.7476,W,1

1.90,2.79,3.91,2.47,2.46,3.07,128898
$GPGGA,210227.000,4217.7052,N,08342.7423,W,1,04,2.83,220.4,M,-37,N,08342.7476,W,1

1.88,2.79,3.91,2.52,2.49,2.91,130031
$GPGGA,210228.000,4217.7051,N,08342.7408,W,1,04,2.83,220.9,M,-37,N,08342.7476,W,1

1.91,2.79,3.91,2.39,2.63,2.94,131164
$GPGGA,210229.000,4217.7045,N,08342.7397,W,1,04,2.83,221.4,M,-37,N,08342.7476,W,1

1.89,2.79,3.93,2.39,2.61,3.08,132296
$GPGGA,210230.000,4217.7037,N,08342.7390,W,1,04,2.83,221.7,M,-37,N,08342.7476,W,1

1.90,2.79,3.92,2.54,2.41,3.14,133430
$GPGGA,210231.000,4217.7028,N,08342.7385,W,1,04,2.83,222.0,M,-37,N,08342.7476,W,1

1.92,2.79,3.89,2.41,2.53,3.02,134562
$GPGGA,210232.000,4217.7020,N,08342.7385,W,1,04,2.83,222.3,M,-37,N,08342.7476,W,1

1.92,2.79,3.90,2.37,2.52,2.91,135742
$GPGGA,210233.000,4217.7011,N,08342.7386,W,1,04,2.83,222.4,M,-3$GPGSV,3,2,09,33,1

1.91,2.79,3.94,2.45,2.52,2.86,136914
,07,105,,22,,,38,27,,,39,29,,,29*46
$GPGSV,3,3,09,31,,,36*77
$GPGSV,3,2,09,33,1

1.92,2.80,3.91,2.46,2.51,3.00,138047
$GPGGA,210236.000,4217.6985,N,08342.7392,W,1,04,2.83,223.4,M,-3$GPGSV,3,2,09,33,1

1.92,2.79,3.93,2.42,2.47,2.97,139181
$GPGGA,210237.000,4217.6976,N,08342.7396,W,1,04,2.83,223.6,M,-3$GPGSV,3,2,09,33,1

1.92,2.79,3.91,2.41,2.56,3.00,140313
$GPGGA,210238.000,4217.6967,N,08342.7400,W,1,04,2.83,224.0,M,-3$GPGSV,3,2,09,33,1

1.92,2.80,3.92,2.44,2.54,2.98,141446
$GPGGA,210239.000,4217.6958,N,08342.7402,W,1,04,2.83,224.4,M,-3$GPGSV,3,2,09,33,1

1.93,2.80,3.91,2.47,2.45,2.89,142590
$GPGGA,210240.000,4217.6948,N,08342.7405,W,1,04,2.83,224.8,M,-3,W,1,04,2.83,225,1

1.92,2.80,3.92,2.42,2.51,2.90,143808
.0,M,-34.0,M,,*5B
$GPGSA,A,3,23,09,16,26,,,,,,,,,3.00,2.83,0.9,W,1,04,2.83,225,1

1.94,2.80,3.91,2.41,2.51,2.91,144941
$GPGGA,210243.000,4217.6918,N,08342.7414,W,1,04,2.83,225.7,M,-3,W,1,04,2.83,225,1

1.93,2.80,3.92,2.39,2.47,3.02,146073
$GPGGA,210244.000,4217.6909,N,08342.7418,W,1,04,2.83,226.0,M,-3,W,1,04,2.83,225,1

1.94,2.80,3.92,2.30,2.52,2.87,147207
$GPGGA,210245.000,4217.6899,N,08342.7421,W,1,04,2.83,226.3,M,-3,W,1,04,2.83,225,1

1.95,2.80,3.91,2.42,2.50,3.03,148339
$GPGGA,210246.000,4217.6888,N,08342.7424,W,1,04,2.83,226.5,M,-3,W,1,04,2.83,225,1

1.94,2.80,3.91,2.41,2.53,3.00,149473
$GPGGA,210247.000,4217.6878,N,08342.7427,W,1,04,2.83,226.7,M,-3,W,1,04,2.83,225,1

1.96,2.80,3.91,2.39,2.57,2.97,150651
$GPGGA,210248.000,4217.6869,N,08342.7428,W,1,04,2.83,227.0,M,-3Š’b¢‚RºNj
$3,225,1

1.95,2.80,3.91,2.44,2.52,2.96,151809
GPGSV,3,2,11,09,26,312,31,22,,,33,03,,,39,27,,,39*41
$GPGSV,3,Š’b¢‚RºNj
$3,225,1

1.94,2.80,3.92,2.42,2.50,2.96,152941
$GPGGA,210251.000,4217.6838,N,08342.7421,W,1,04,2.83,227.5,M,-3Š’b¢‚RºNj
$3,225,1

1.95,2.80,3.92,2.40,2.46,2.86,154075
$GPGGA,210252.000,4217.6828,N,08342.7417,W,1,04,2.83,227.7,M,-3Š’b¢‚RºNj
$3,225,1

1.95,2.80,3.92,2.51,2.44,3.03,155207
$GPGGA,210253.000,4217.6819,N,08342.7414,W,1,04,2.83,227.9,M,-3Š’b¢‚RºNj
$3,225,1

1.95,2.80,3.91,2.42,2.46,2.94,156341
$GPGGA,210254.000,4217.6809,N,08342.7411,W,1,04,2.83,228.2,M,-3Š’b¢‚RºNj
$3,225,1

1.94,2.80,3.92,2.52,2.52,3.04,157473
$GPGGA,210255.000,4217.6799,N,08342.7407,W,1,04,2.83,228.1,M,-3256.000,4217.67881

1.95,2.80,3.92,2.41,2.58,2.97,158697
,N,08342.7401,W,1,04,2.83,228.1,M,-34.0,M,,*5C
$GPGSA,A,3,23,032
000,4217.67881

1.95,2.79,3.92,2.43,2.52,2.89,159839
$GPGGA,210258.000,4217.6767,N,08342.7392,W,1,04,2.83,227.7,M,-332
000,4217.67881

1.94,2.79,3.92,2.40,2.53,3.02,160982
$GPGGA,210259.000,4217.6758,N,08342.7387,W,1,04,2.83,227.6,M,-332
000,4217.67881

1.94,2.79,3.92,2.37,2.56,3.02,162115
$GPGGA,210300.000,4217.6748,N,08342.7382,W,1,04,2.83,227.7,M,-332
000,4217.67881

1.95,2.79,3.91,2.42,2.52,2.89,163295
$GPGGA,210301.000,4217.6758,N,08342.7390,W,1,05,2.61,233.6,M,-3’Šºbbb
7317.67881

1.95,2.79,3.92,2.35,2.36,2.91,164461

$GPVTG,159.75,T,,M,3.97,N,7.35,K,A*3E
$GPGGA,210303.000,4217’Šºbbb
7317.67881

1.94,2.79,3.91,2.41,2.61,3.09,165611
$GPGGA,210304.000,4217.6752,N,08342.7392,W,1,05,2.61,241.1,M,-3’Šºbbb
7317.67881

1.94,2.79,3.93,2.45,2.53,2.94,166745
$GPGGA,210305.000,4217.6748,N,08342.7392,W,1,05,2.61,242.9,M,-3’Šºbbb
7317.67881

1.94,2.79,3.91,2.41,2.43,3.04,167877
$GPGGA,210306.000,4217.6745,N,08342.7392,W,1,05,2.61,245.1,M,-3’Šºbbb
7317.67881

1.94,2.79,3.92,2.43,2.41,2.94,169010
$GPGGA,210307.000,4217.6738,N,08342.7390,W,1,05,2.61,245.9,M,-3’Šºbbb
7317.67881

1.95,2.79,3.92,2.42,2.47,2.92,170173
$GPGGA,210308.000,4217.6731,N,08342.7387,W,1,05,2.61,246.7,M,-3ÔeÅšbŠbŠŠbŠ²bÂ7881

1.94,2.79,3.91,2.42,2.48,2.80,171346
ªbŠª‚b¢’b’šb²¢b’Ê²b¢‚b’²bªÊb‚ªšb¢ºbªŠbšªb’Š’bš²Rº’j
$GPGSV,3,2,ÔeÅšbŠbŠŠbŠ²bÂ7881

1.94,2.79,3.91,2.46,2.41,2.99,172479
$GPGGA,210311.000,4217.6709,N,08342.7377,W,1,05,2.62,247.6,M,-3ÔeÅšbŠbŠŠbŠ²bÂ7881

1.94,2.79,3.95,2.48,2.57,3.12,173613
$GPGGA,210312.000,4217.6702,N,08342.7373,W,1,05,2.62,247.9,M,-3ÔeÅšbŠbŠŠbŠ²bÂ7881

1.95,2.79,3.92,2.41,2.47,2.89,174745
$GPGGA,210313.000,4217.6693,N,08342.7370,W,1,05,2.61,248.1,M,-3ÔeÅšbŠbŠŠbŠ²bÂ7881

1.94,2.79,3.91,2.36,2.66,3.04,175879
$GPGGA,210314.000,4217.6684,N,08342.7366,W,1,05,2.62,248.2,M,-3ÔeÅšbŠbŠŠbŠ²bÂ7881

1.95,2.79,3.86,2.49,2.44,3.05,177011
$GPGGA,210315.000,4217.6673,N,08342.7362,W,1,05,2.62,248.2,M,-3ÔeÅšbŠbŠŠbŠ²bÂ7881

1.95,2.79,3.92,2.44,2.48,3.01,178193
$GPGGA,210316.000,4217.6666,N,08342.7360,W,1,05,3.51,248.3,M,-3ÔeÅšbŠbŠŠbŠ²bÂ7881

1.95,2.79,3.91,2.36,2.44,2.93,179337
$GPGGA,210318.000,4217.6648,N,08342.7354,W,1,05,2.62,248.8,M,-3ÔeÅšbŠbŠŠbŠ²bÂ7881

1.94,2.79,3.93,2.38,2.53,2.83,180482
$GPGGA,210319.000,4217.6640,N,08342.7351,W,1,05,2.62,248.9,M,-3ÔeÅšbŠbŠŠbŠ²bÂ7881

SENSOR: 1.95,2.79,3.91,2.38,2.55,3.04,181614
$GPGGA,210320.000,4217.6632,N,08342.7349,W,1,05,2.62,248.9,M,-3ÔeÅšbŠbŠŠbŠ²bÂ7881

1.94,2.79,3.91,2.40,2.47,2.95,182748
$GPGGA,210321.000,4217.6622,N,08342.7345,W,1,05,2.62,248.9,M,-3ÔeÅšbŠbŠŠbŠ²bÂ7881

1.94,2.79,3.94,2.42,2.54,2.91,183880
$GPGGA,210322.000,4217.6611,N,08342.7340,W,1,05,2.62,249.0,M,-3ÔeÅšbŠbŠŠbŠ²bÂ7881

1.94,2.79,3.91,2.39,2.46,2.92,185047
$GPGGA,210323.000,4217.6598,N,08342.7335,W,1,05,2.62,249.1,M,-3!ÒuMY±ŠŠbŠ²bÂ7881

1.94,2.79,3.91,2.56,2.43,3.25,186219
3,1,11,16,85,150,43,23,64,296,38,26,59,053,41,51,35,212,40*7B
!ÒuMY±ŠŠbŠ²bÂ7881

1.96,2.79,3.91,2.45,2.47,2.98,187353
$GPGGA,210326.000,4217.6570,N,08342.7328,W,1,05,2.62,249.3,M,-3!ÒuMY±ŠŠbŠ²bÂ7881

1.97,2.79,3.91,2.39,2.41,3.01,188485
$GPGGA,210327.000,4217.6562,N,08342.7324,W,1,05,2.62,249.4,M,-3!ÒuMY±ŠŠbŠ²bÂ7881

2.00,2.79,3.91,2.47,2.48,3.17,189618
$GPGGA,210328.000,4217.6559,N,08342.7316,W,1,05,2.62,249.4,M,-3!ÒuMY±ŠŠbŠ²bÂ7881

2.01,2.79,3.92,2.36,2.54,3.06,190751
$GPGGA,210329.000,4217.6556,N,08342.7303,W,1,05,2.62,249.7,M,-3!ÒuMY±ŠŠbŠ²bÂ7881

2.00,2.79,3.92,2.35,2.50,3.06,191884
$GPGGA,210330.000,4217.6553,N,08342.7291,W,1,05,2.62,249.9,M,-3!ÒuMY±ŠŠbŠ²bÂ7881

2.01,2.80,3.91,2.39,2.56,3.06,193077
